;UF;city;Lat;Long;height;availability;availability time
0;GO;Abadia de Goiás;-16.756;-49.44;883.0;99.999;5.0
1;MG;Abadia dos Dourados;-18.486;-47.4;821.0;99.999;5.0
2;GO;Abadiânia;-16.254;-48.71;1061.0;99.999;5.0
3;MG;Abaeté;-19.125;-45.45;614.0;99.999;5.0
4;PA;Abaetetuba;-1.752;-48.76;6.0;99.999;5.0
5;CE;Abaiara;-7.359;-39.05;411.0;99.999;5.0
6;BA;Abaíra;-13.25;-41.66;1056.0;99.999;5.0
7;BA;Abaré;-8.752;-39.11;368.0;99.999;5.0
8;PR;Abatiá;-23.304;-50.31;606.0;99.999;5.0
9;SC;Abdon Batista;-27.611;-51.02;0.0;99.999;5.0
10;PA;Abel Figueiredo;-4.954;-48.39;195.0;99.999;5.0
11;SC;Abelardo Luz;-26.6;-52.33;843.0;99.999;5.0
12;MG;Abre Campo;-20.301;-42.48;871.0;99.999;5.0
13;PE;Abreu e Lima;-7.912;-34.9;0.0;99.997;16.0
14;TO;Abreulândia;-9.621;-49.15;264.0;99.999;5.0
15;MG;Acaiaca;-20.363;-43.14;576.0;99.999;5.0
16;MA;Açailândia;-4.947;-47.5;239.0;99.999;5.0
17;BA;Acajutiba;-11.662;-38.02;0.0;99.998;11.0
18;PA;Acará;-1.961;-48.2;37.0;99.999;5.0
19;CE;Acarape;-4.224;-38.71;96.0;99.998;11.0
20;CE;Acaraú;-2.756;-40.12;34.0;99.998;11.0
21;RN;Acari;-6.436;-36.64;0.0;99.999;5.0
22;PI;Acauã;-8.215;-41.08;437.0;99.999;5.0
23;CE;Acopiara;-6.095;-39.45;299.0;99.999;5.0
24;MT;Acorizal;-15.255;-56.37;0.0;99.999;5.0
25;AC;Acrelândia;-9.755;-66.76;0.0;99.999;5.0
26;GO;Acreúna;-17.396;-50.38;503.0;99.999;5.0
27;RN;Açu;-5.6;-36.91;703.0;99.999;5.0
28;MG;Açucena;-19.073;-42.5;0.0;99.999;5.0
29;SP;Adamantina;-21.685;-51.07;425.0;99.999;5.0
30;GO;Adelândia;-16.415;-50.13;673.0;99.999;5.0
31;SP;Adolfo;-21.235;-49.64;419.0;99.999;5.0
32;PR;Adrianópolis;-24.657;-48.99;645.0;99.999;5.0
33;BA;Adustina;-10.5;-38.1;0.0;99.999;5.0
34;PE;Afogados da Ingazeira;-7.755;-37.64;0.0;99.999;5.0
35;RN;Afonso Bezerra;-5.498;-36.5;0.0;99.999;5.0
36;ES;Afonso Claúdio;-20.074;-41.12;441.0;99.999;5.0
37;MA;Afonso Cunha;-4.133;-43.32;128.0;99.998;11.0
38;PE;Afrânio;-8.5;-41.01;471.0;99.999;5.0
39;PA;Afuá;-0.157;-50.39;0.0;99.999;5.0
40;PE;Agrestina;-8.458;-35.94;0.0;99.999;5.0
41;PI;Agricolândia;-5.76;-42.67;271.0;99.999;5.0
42;SC;Agrolândia;-27.412;-49.75;0.0;99.999;5.0
43;SC;Agronômica;-27.265;-49.71;0.0;99.999;5.0
44;PA;Água Azul do Norte;-6.759;-50.47;286.0;99.999;5.0
45;MG;Água Boa;-17.996;-42.39;424.0;99.999;5.0
46;MT;Água Boa;-14.05;-52.16;349.0;99.999;5.0
47;AL;Água Branca;-9.261;-37.94;0.0;99.999;5.0
48;PB;Água Branca;-7.5;-37.64;0.0;99.999;5.0
49;PI;Água Branca;-5.756;-42.64;235.0;99.999;5.0
50;MS;Água Clara;-20.448;-52.76;429.0;99.999;5.0
51;MG;Água Comprida;-20.056;-48.11;604.0;99.999;5.0
52;SC;Água Doce;-26.998;-51.6;40.0;99.999;5.0
53;MA;Água Doce do Maranhão;-2.755;-42.11;249.0;99.998;11.0
54;ES;Água Doce do Norte;-18.5;-40.98;0.0;99.998;11.0
55;BA;Água Fria;-11.756;-38.77;1004.0;99.999;5.0
56;GO;Água Fria de Goiás;-14.986;-47.78;424.0;99.999;5.0
57;GO;Água Limpa;-18.074;-48.76;633.0;99.999;5.0
58;RN;Água Nova;-6.259;-38.3;0.0;99.999;5.0
59;PE;Água Preta;-8.751;-35.5;0.0;99.998;11.0
60;RS;Água Santa;-28.177;-52.03;0.0;99.999;5.0
61;SP;Aguaí;-22.059;-46.98;643.0;99.999;5.0
62;MG;Aguanil;-20.943;-45.39;875.0;99.999;5.0
63;PE;Águas Belas;-9.111;-37.12;0.0;99.999;5.0
64;SP;Águas da Prata;-21.937;-46.72;1027.0;99.999;5.0
65;SC;Águas de Chapecó;-27.07;-52.99;0.0;99.999;5.0
66;SP;Águas de Lindóia;-22.476;-46.63;934.0;99.999;5.0
67;SP;Águas de Santa Bárbara;-22.756;-49.24;651.0;99.999;5.0
68;SP;Águas de São Pedro;-22.6;-47.76;482.0;99.999;5.0
69;MG;Águas Formosas;-17.082;-40.94;287.0;99.999;5.0
70;SC;Águas Frias;-26.756;-52.76;0.0;99.999;5.0
71;GO;Águas Lindas de Goiás;-15.756;-48.28;1090.0;99.999;5.0
72;SC;Águas Mornas;-27.694;-48.75;0.0;99.998;11.0
73;MG;Águas Vermelhas;-15.755;-41.46;875.0;99.999;5.0
74;RS;Agudo;-29.645;-53.24;0.0;99.999;5.0
75;SP;Agudos;-22.469;-48.99;921.0;99.999;5.0
76;PR;Agudos do Sul;-25.993;-49.34;565.0;99.999;5.0
77;ES;Águia Branca;-18.983;-40.74;149.0;99.998;11.0
78;PB;Aguiar;-7.092;-38.17;265.0;99.999;5.0
79;TO;Aguiarnópolis;-6.6;-47.47;0.0;99.999;5.0
80;MG;Aimorés;-19.496;-41.06;315.0;99.999;5.0
81;BA;Aiquara;-14.129;-39.76;242.0;99.999;5.0
82;CE;Aiuaba;-6.6;-40.12;518.0;99.999;5.0
83;MG;Aiuruoca;-21.976;-44.6;1184.0;99.999;5.0
84;RS;Ajuricaba;-28.239;-53.77;0.0;99.999;5.0
85;MG;Alagoa;-22.171;-44.64;0.0;99.999;5.0
86;PB;Alagoa Grande;-7.158;-35.63;0.0;99.998;11.0
87;PB;Alagoa Nova;-7.071;-35.76;1233.0;99.999;5.0
88;PB;Alagoinha;-6.95;-35.5;465.0;99.998;11.0
89;PE;Alagoinha;-8.466;-36.78;0.0;99.999;5.0
90;PI;Alagoinha do Piauí;-7.008;-40.94;0.0;99.999;5.0
91;BA;Alagoinhas;-12.136;-38.42;0.0;99.998;11.0
92;SP;Alambari;-23.6;-47.76;599.0;99.999;5.0
93;MG;Albertina;-22.251;-46.62;982.0;99.999;5.0
94;MA;Alcântara;-2.409;-44.41;0.0;99.998;11.0
95;CE;Alcântaras;-3.6;-40.5;683.0;99.999;5.0
96;PB;Alcantil;-7.754;-36.06;0.0;99.999;5.0
97;MS;Alcinópolis;-18.324;-53.71;471.0;99.999;5.0
98;BA;Alcobaça;-17.5;-39.2;43.0;99.998;11.0
99;MA;Aldeias Altas;-4.628;-43.47;128.0;99.999;5.0
100;RS;Alecrim;-27.655;-54.76;0.0;99.999;5.0
101;ES;Alegre;-20.756;-41.5;133.0;99.998;11.0
102;RS;Alegrete;-29.758;-55.79;479.0;99.999;5.0
103;PI;Alegrete do Piauí;-7.243;-40.76;0.0;99.999;5.0
104;RS;Alegria;-27.755;-54.06;0.0;99.999;5.0
105;MG;Além Paraíba;-21.756;-42.7;445.0;99.999;5.0
106;PA;Alenquer;-1.942;-54.74;0.0;99.999;5.0
107;RN;Alexandria;-6.413;-38.02;0.0;99.999;5.0
108;GO;Alexânia;-16.082;-48.5;998.0;99.999;5.0
109;MG;Alfenas;-21.429;-45.95;816.0;99.999;5.0
110;ES;Alfredo Chaves;-20.635;-40.75;501.0;99.998;11.0
111;SP;Alfredo Marcondes;-21.955;-51.41;351.0;99.999;5.0
112;MG;Alfredo Vasconcelos;-21.145;-43.78;1072.0;99.999;5.0
113;SC;Alfredo Wagner;-27.75;-49.33;0.0;99.999;5.0
114;PB;Algodão de Jandaíra;-6.905;-36.01;0.0;99.999;5.0
115;PB;Alhandra;-7.439;-34.91;0.0;99.997;16.0
116;PE;Aliança;-7.603;-35.23;289.0;99.998;11.0
117;TO;Aliança do Tocantins;-11.306;-48.94;0.0;99.999;5.0
118;BA;Almadina;-14.751;-39.64;551.0;99.998;11.0
119;TO;Almas;-11.6;-47.17;372.0;99.999;5.0
120;PA;Almeirim;-1.5;-52.6;308.0;99.999;5.0
121;MG;Almenara;-16.184;-40.69;358.0;99.999;5.0
122;RN;Almino Afonso;-6.152;-37.77;0.0;99.999;5.0
123;PR;Almirante Tamandaré;-25.325;-49.31;986.0;99.999;5.0
124;GO;Aloândia;-17.753;-49.48;554.0;99.999;5.0
125;MG;Alpercata;-18.974;-41.97;204.0;99.999;5.0
126;RS;Alpestre;-27.249;-53.04;0.0;99.999;5.0
127;MG;Alpinópolis;-20.756;-46.39;919.0;99.999;5.0
128;MT;Alta Floresta;-9.756;-56.09;0.0;99.999;5.0
129;RO;Alta Floresta d'Oeste;-11.968;-61.95;0.0;99.999;5.0
130;SP;Altair;-20.5;-49.06;497.0;99.999;5.0
131;PA;Altamira;-3.253;-52.26;64.0;99.999;5.0
132;MA;Altamira do Maranhão;-4.058;-45.5;564.0;99.999;5.0
133;PR;Altamira do Paraná;-24.76;-52.71;301.0;99.999;5.0
134;CE;Altaneira;-7.002;-39.74;581.0;99.999;5.0
135;PR;Altãnia;-23.756;-53.9;0.0;99.999;5.0
136;MG;Alterosa;-21.249;-46.14;843.0;99.999;5.0
137;PE;Altinho;-8.49;-36.06;0.0;99.999;5.0
138;SP;Altinópolis;-21.026;-47.37;965.0;99.999;5.0
139;RR;Alto Alegre;2.756;-61.5;64.0;99.999;5.0
140;RS;Alto Alegre;-28.757;-52.99;0.0;99.999;5.0
141;SP;Alto Alegre;-21.6;-50.13;178.0;99.999;5.0
142;MA;Alto Alegre do Maranhão;-4.213;-44.45;0.0;99.999;5.0
143;RO;Alto Alegre do Parecis;-12.128;-61.76;0.0;99.999;5.0
144;MA;Alto Alegre do Pindaré;-3.69;-45.9;447.0;99.999;5.0
145;MT;Alto Araguaia;-17.315;-53.22;653.0;99.999;5.0
146;SC;Alto Bela Vista;-27.458;-51.76;0.0;99.999;5.0
147;MT;Alto Boa Vista;-11.674;-51.39;345.0;99.999;5.0
148;MG;Alto Caparaó;-20.433;-41.76;1034.0;99.999;5.0
149;RN;Alto do Rodrigues;-5.288;-36.76;0.0;99.999;5.0
150;RS;Alto Feliz;-29.392;-51.31;0.0;99.999;5.0
151;MT;Alto Garças;-16.944;-53.5;812.0;99.999;5.0
152;GO;Alto Horizonte;-14.196;-49.34;316.0;99.999;5.0
153;MG;Alto Jequitibá;-20.424;-41.97;663.0;99.999;5.0
154;PI;Alto Longá;-5.251;-42.21;182.0;99.999;5.0
155;MT;Alto Paraguai;-14.5;-56.48;0.0;99.999;5.0
156;RO;Alto Paraíso;-9.751;-63.32;1305.0;99.999;5.0
157;GO;Alto Paraíso de Goiás;-14.133;-47.5;0.0;99.999;5.0
158;PR;Alto Paraná;-23.129;-52.32;407.0;99.999;5.0
159;MA;Alto Parnaíba;-9.111;-45.93;433.0;99.999;5.0
160;PR;Alto Piquiri;-24.028;-53.44;363.0;99.999;5.0
161;MG;Alto Rio Doce;-21.026;-43.41;697.0;99.999;5.0
162;ES;Alto Rio Novo;-19.056;-41.02;585.0;99.999;5.0
163;CE;Alto Santo;-5.5;-38.27;0.0;99.999;5.0
164;MT;Alto Taquari;-17.755;-53.28;875.0;99.999;5.0
165;PI;Altos;-5.038;-42.46;178.0;99.999;5.0
166;SP;Alumínio;-23.5;-47.26;766.0;99.999;5.0
167;AM;Alvarães;-3.221;-64.75;0.0;99.999;5.0
168;MG;Alvarenga;-19.417;-41.73;836.0;99.999;5.0
169;SP;Álvares Florence;-20.321;-49.91;456.0;99.999;5.0
170;SP;Álvares Machado;-22.079;-51.47;356.0;99.999;5.0
171;SP;Álvaro de Carvalho;-22.089;-49.72;539.0;99.999;5.0
172;SP;Alvinlândia;-22.444;-49.76;662.0;99.999;5.0
173;MG;Alvinópolis;-20.107;-43.05;737.0;99.999;5.0
174;RS;Alvorada;-29.99;-51.08;659.0;99.999;5.0
175;TO;Alvorada;-12.48;-49.12;374.0;99.999;5.0
176;MG;Alvorada de Minas;-18.754;-43.37;489.0;99.999;5.0
177;PI;Alvorada do Gurguéia;-8.424;-43.78;414.0;99.999;5.0
178;GO;Alvorada do Norte;-14.481;-46.49;0.0;99.999;5.0
179;PR;Alvorada do Sul;-22.758;-51.23;0.0;99.999;5.0
180;RO;Alvorada d'Oeste;-11.341;-62.29;286.0;99.999;5.0
181;RR;Amajari;3.652;-61.37;0.0;99.999;5.0
182;MS;Amambai;-23.104;-55.23;0.0;99.999;5.0
183;AP;Amapá;2.053;-50.79;34.0;99.998;11.0
184;MA;Amapá do Maranhão;-1.6;-45.93;8.0;99.998;11.0
185;PR;Amaporã;-23.096;-52.79;347.0;99.999;5.0
186;PE;Amaraji;-8.383;-35.45;0.0;99.998;11.0
187;RS;Amaral Ferrador;-30.756;-52.26;0.0;99.999;5.0
188;GO;Amaralina;-13.926;-49.3;351.0;99.999;5.0
189;PI;Amarante;-6.241;-42.76;313.0;99.999;5.0
190;MA;Amarante do Maranhão;-5.6;-46.74;204.0;99.999;5.0
191;BA;Amargosa;-13.03;-39.6;405.0;99.999;5.0
192;AM;Amaturá;-3.364;-68.2;0.0;99.999;5.0
193;BA;Amélia Rodrigues;-12.392;-38.76;108.0;99.998;11.0
194;BA;América Dourada;-11.455;-41.44;797.0;99.999;5.0
195;SP;Americana;-22.754;-47.33;578.0;99.999;5.0
196;GO;Americano do Brasil;-16.255;-49.98;868.0;99.999;5.0
197;SP;Américo Brasiliense;-21.752;-48.1;594.0;99.999;5.0
198;SP;Américo de Campos;-20.299;-49.73;487.0;99.999;5.0
199;RS;Ametista do Sul;-27.361;-53.18;0.0;99.999;5.0
200;CE;Amontada;-3.494;-39.6;18.0;99.999;5.0
201;GO;Amorinópolis;-16.619;-51.09;609.0;99.999;5.0
202;PB;Amparo;-7.6;-37.06;0.0;99.999;5.0
203;SP;Amparo;-22.75;-46.76;599.0;99.999;5.0
204;SE;Amparo de São Francisco;-10.134;-36.93;0.0;99.999;5.0
205;MG;Amparo do Serra;-20.5;-42.75;700.0;99.999;5.0
206;PR;Ampére;-25.915;-53.47;499.0;99.999;5.0
207;AL;Anadia;-9.684;-36.3;0.0;99.998;11.0
208;BA;Anagé;-14.612;-41.14;511.0;99.999;5.0
209;PR;Anahy;-24.752;-53.08;467.0;99.999;5.0
210;PA;Anajás;-0.987;-49.94;26.0;99.998;11.0
211;MA;Anajatuba;-3.264;-44.62;16.0;99.999;5.0
212;SP;Analândia;-22.126;-47.66;729.0;99.999;5.0
213;AM;Anamã;-3.6;-61.4;0.0;99.999;5.0
214;TO;Ananás;-6.365;-48.07;137.0;99.999;5.0
215;PA;Ananindeua;-1.366;-48.37;17.0;99.998;11.0
216;GO;Anápolis;-16.327;-48.95;1111.0;99.999;5.0
217;PA;Anapu;-3.472;-51.2;151.0;99.999;5.0
218;MA;Anapurus;-3.672;-43.12;84.0;99.998;11.0
219;MS;Anastácio;-20.484;-55.75;0.0;99.999;5.0
220;MS;Anaurilândia;-22.188;-52.72;329.0;99.999;5.0
221;ES;Anchieta;-20.755;-40.65;45.0;99.998;11.0
222;SC;Anchieta;-26.5;-53.33;725.0;99.999;5.0
223;BA;Andaraí;-12.755;-41.33;324.0;99.999;5.0
224;PR;Andirá;-23.051;-50.23;426.0;99.999;5.0
225;BA;Andorinha;-10.345;-39.75;466.0;99.999;5.0
226;MG;Andradas;-22.068;-46.6;938.0;99.999;5.0
227;SP;Andradina;-20.756;-51.38;337.0;99.999;5.0
228;RS;André da Rocha;-28.631;-51.6;0.0;99.999;5.0
229;MG;Andrelândia;-21.754;-44.31;1095.0;99.999;5.0
230;SP;Angatuba;-23.49;-48.41;637.0;99.999;5.0
231;MG;Angelândia;-17.602;-42.13;871.0;99.999;5.0
232;MS;Angélica;-22.153;-53.77;348.0;99.999;5.0
233;PE;Angelim;-8.756;-36.29;0.0;99.999;5.0
234;SC;Angelina;-27.6;-48.99;0.0;99.999;5.0
235;BA;Angical;-12.007;-44.69;185.0;99.999;5.0
236;PI;Angical do Piauí;-6.086;-42.74;493.0;99.999;5.0
237;TO;Angico;-6.389;-47.76;0.0;99.999;5.0
238;RN;Angicos;-5.666;-36.6;356.0;99.999;5.0
239;RJ;Angra dos Reis;-23.007;-44.32;944.0;99.998;11.0
240;BA;Anguera;-12.151;-39.25;220.0;99.999;5.0
241;PR;Ângulo;-23.195;-51.92;421.0;99.999;5.0
242;GO;Anhanguera;-18.337;-48.22;640.0;99.999;5.0
243;SP;Anhembi;-22.759;-48.13;492.0;99.999;5.0
244;SP;Anhumas;-22.295;-51.39;413.0;99.999;5.0
245;GO;Anicuns;-16.461;-49.96;745.0;99.999;5.0
246;PI;Anísio de Abreu;-9.189;-43.05;463.0;99.999;5.0
247;SC;Anita Garibaldi;-27.689;-51.13;0.0;99.999;5.0
248;SC;Anitápolis;-27.902;-49.13;0.0;99.999;5.0
249;AM;Anori;-3.757;-61.64;0.0;99.999;5.0
250;RS;Anta Gorda;-28.97;-52.0;0.0;99.999;5.0
251;BA;Antas;-10.4;-38.33;0.0;99.999;5.0
252;PR;Antonina;-25.429;-48.71;357.0;99.999;5.0
253;CE;Antonina do Norte;-6.758;-39.99;9.0;99.999;5.0
254;PI;Antônio Almeida;-7.219;-44.2;234.0;99.999;5.0
255;BA;Antônio Cardoso;-12.435;-39.12;219.0;99.999;5.0
256;MG;Antônio Carlos;-21.318;-43.75;1121.0;99.999;5.0
257;SC;Antônio Carlos;-27.5;-48.77;0.0;99.999;5.0
258;MG;Antônio Dias;-19.653;-42.76;698.0;99.999;5.0
259;BA;Antônio Gonçalves;-10.6;-40.28;828.0;99.999;5.0
260;MS;Antônio João;-22.191;-55.95;0.0;99.999;5.0
261;RN;Antônio Martins;-6.213;-37.91;0.0;99.999;5.0
262;PR;Antônio Olinto;-25.986;-50.2;879.0;99.999;5.0
263;RS;Antônio Prado;-28.756;-51.28;265.0;99.999;5.0
264;MG;Antônio Prado de Minas;-21.016;-42.11;0.0;99.999;5.0
265;PB;Aparecida;-6.758;-38.09;785.0;99.999;5.0
266;SP;Aparecida;-22.755;-45.23;568.0;99.999;5.0
267;GO;Aparecida de Goiânia;-16.755;-49.24;277.0;99.999;5.0
268;GO;Aparecida do Rio Doce;-18.299;-51.15;339.0;99.999;5.0
269;TO;Aparecida do Rio Negro;-9.952;-47.97;382.0;99.999;5.0
270;MS;Aparecida do Taboado;-20.087;-51.09;0.0;99.999;5.0
271;SP;Aparecida d'Oeste;-20.449;-50.76;609.0;99.999;5.0
272;RJ;Aperibé;-21.621;-42.1;124.0;99.999;5.0
273;ES;Apiacá;-21.154;-41.6;265.0;99.998;11.0
274;MT;Apiacás;-9.5;-57.45;0.0;99.999;5.0
275;SP;Apiaí;-24.5;-48.75;911.0;99.999;5.0
276;MA;Apicum-Açu;-1.461;-45.1;8.0;99.998;11.0
277;SC;Apiúna;-27.036;-49.39;0.0;99.999;5.0
278;RN;Apodi;-5.664;-37.8;0.0;99.999;5.0
279;BA;Aporá;-11.66;-38.08;0.0;99.998;11.0
280;GO;Aporé;-18.965;-51.93;669.0;99.999;5.0
281;BA;Apuarema;-13.756;-39.74;270.0;99.999;5.0
282;PR;Apucarana;-23.6;-51.46;756.0;99.999;5.0
283;AM;Apuí;-7.197;-59.76;0.0;99.999;5.0
284;CE;Apuiarés;-3.949;-39.43;88.0;99.999;5.0
285;SE;Aquidabã;-10.281;-37.02;0.0;99.998;11.0
286;MS;Aquidauana;-20.471;-55.79;0.0;99.999;5.0
287;CE;Aquiraz;-3.901;-38.39;0.0;99.998;11.0
288;SC;Arabutã;-27.125;-52.14;0.0;99.999;5.0
289;PB;Araçagi;-6.756;-35.38;0.0;99.998;11.0
290;MG;Araçaí;-19.199;-44.25;721.0;99.999;5.0
291;SE;Aracaju;-10.911;-37.07;0.0;99.998;11.0
292;SP;Araçariguama;-23.439;-47.06;680.0;99.999;5.0
293;BA;Araçás;-12.211;-38.25;0.0;99.998;11.0
294;CE;Aracati;-4.6;-37.77;0.0;99.998;11.0
295;BA;Aracatu;-14.428;-41.46;667.0;99.999;5.0
296;SP;Araçatuba;-21.259;-50.43;343.0;99.999;5.0
297;BA;Araci;-11.333;-38.97;263.0;99.999;5.0
298;MG;Aracitaba;-21.343;-43.38;794.0;99.999;5.0
299;CE;Aracoiaba;-4.371;-38.75;615.0;99.998;11.0
300;PE;Araçoiaba;-7.759;-35.09;111.0;99.998;11.0
301;SP;Araçoiaba da Serra;-23.5;-47.61;0.0;99.999;5.0
302;ES;Aracruz;-19.755;-40.27;36.0;99.998;11.0
303;GO;Araçu;-16.358;-49.68;403.0;99.999;5.0
304;MG;Araçuaí;-16.755;-42.07;689.0;99.999;5.0
305;GO;Aragarças;-15.756;-52.25;326.0;99.999;5.0
306;GO;Aragoiânia;-16.912;-49.45;792.0;99.999;5.0
307;TO;Aragominas;-7.16;-48.5;156.0;99.999;5.0
308;TO;Araguacema;-8.755;-49.6;210.0;99.999;5.0
309;TO;Araguaçu;-12.931;-49.75;250.0;99.999;5.0
310;MT;Araguaiana;-15.753;-51.75;270.0;99.999;5.0
311;TO;Araguaína;-7.191;-48.26;232.0;99.999;5.0
312;MT;Araguainha;-16.756;-53.03;596.0;99.999;5.0
313;MA;Araguanã;-2.953;-45.67;43.0;99.999;5.0
314;TO;Araguanã;-6.6;-48.64;203.0;99.999;5.0
315;GO;Araguapaz;-15.091;-50.63;336.0;99.999;5.0
316;MG;Araguari;-18.647;-48.19;925.0;99.999;5.0
317;TO;Araguatins;-5.651;-48.12;108.0;99.999;5.0
318;MA;Araioses;-2.756;-41.9;3.0;99.998;11.0
319;MS;Aral Moreira;-22.934;-55.64;0.0;99.999;5.0
320;BA;Aramari;-12.082;-38.5;233.0;99.998;11.0
321;RS;Arambaré;-30.915;-51.5;0.0;99.999;5.0
322;MA;Arame;-4.756;-46.01;286.0;99.999;5.0
323;SP;Aramina;-20.09;-47.79;576.0;99.999;5.0
324;SP;Arandu;-23.134;-49.05;614.0;99.999;5.0
325;MG;Arantina;-21.911;-44.26;1073.0;99.999;5.0
326;SP;Arapeí;-22.674;-44.45;506.0;99.999;5.0
327;AL;Arapiraca;-9.755;-36.66;0.0;99.999;5.0
328;TO;Arapoema;-7.658;-49.06;203.0;99.999;5.0
329;MG;Araponga;-20.667;-42.5;1216.0;99.999;5.0
330;PR;Arapongas;-23.419;-51.42;764.0;99.999;5.0
331;MG;Araporã;-18.436;-49.19;553.0;99.999;5.0
332;PR;Arapoti;-24.158;-49.75;695.0;99.999;5.0
333;MG;Arapuá;-19.034;-46.16;906.0;99.999;5.0
334;PR;Arapuã;-24.316;-51.79;610.0;99.999;5.0
335;MT;Araputanga;-15.471;-58.35;0.0;99.999;5.0
336;SC;Araquari;-26.37;-48.72;16.0;99.998;11.0
337;PB;Arara;-6.755;-35.76;0.0;99.999;5.0
338;SC;Araranguá;-28.935;-49.49;0.0;99.999;5.0
339;SP;Araraquara;-21.759;-48.18;680.0;99.999;5.0
340;SP;Araras;-22.357;-47.38;644.0;99.999;5.0
341;CE;Ararendá;-4.755;-40.75;313.0;99.999;5.0
342;MA;Arari;-3.454;-44.78;0.0;99.999;5.0
343;RS;Araricá;-29.614;-50.93;9.0;99.999;5.0
344;CE;Araripe;-7.213;-40.05;746.0;99.999;5.0
345;PE;Araripina;-7.6;-40.5;606.0;99.999;5.0
346;RJ;Araruama;-22.756;-42.34;48.0;99.998;11.0
347;PB;Araruna;-6.6;-35.74;0.0;99.999;5.0
348;PR;Araruna;-23.932;-52.5;586.0;99.999;5.0
349;BA;Arataca;-15.263;-39.41;158.0;99.998;11.0
350;RS;Aratiba;-27.394;-52.3;0.0;99.999;5.0
351;CE;Aratuba;-4.418;-39.05;602.0;99.999;5.0
352;BA;Aratuípe;-13.079;-39.0;115.0;99.998;11.0
353;SE;Arauá;-11.262;-37.62;0.0;99.998;11.0
354;PR;Araucária;-25.6;-49.41;891.0;99.999;5.0
355;MG;Araújos;-19.948;-45.13;810.0;99.999;5.0
356;MG;Araxá;-19.6;-46.94;1026.0;99.999;5.0
357;MG;Arceburgo;-21.364;-46.94;702.0;99.999;5.0
358;SP;Arco-Íris;-21.757;-50.47;391.0;99.999;5.0
359;MG;Arcos;-20.282;-45.5;744.0;99.999;5.0
360;PE;Arcoverde;-8.419;-37.05;0.0;99.999;5.0
361;MG;Areado;-21.359;-46.15;791.0;99.999;5.0
362;RJ;Areal;-22.231;-43.11;558.0;99.999;5.0
363;SP;Arealva;-22.029;-48.91;528.0;99.999;5.0
364;PB;Areia;-6.963;-35.69;0.0;99.998;11.0
365;RN;Areia Branca;-4.956;-37.14;0.0;99.999;5.0
366;SE;Areia Branca;-10.756;-37.32;0.0;99.998;11.0
367;PB;Areia de Baraúnas;-7.123;-36.94;0.0;99.999;5.0
368;PB;Areial;-7.061;-35.93;0.0;99.999;5.0
369;SP;Areias;-22.6;-44.7;689.0;99.999;5.0
370;SP;Areiópolis;-22.668;-48.67;646.0;99.999;5.0
371;MT;Arenápolis;-14.45;-56.75;0.0;99.999;5.0
372;GO;Arenópolis;-16.386;-51.6;390.0;99.999;5.0
373;RN;Arês;-6.194;-35.13;0.0;99.998;11.0
374;MG;Argirita;-21.61;-42.75;273.0;99.999;5.0
375;MG;Aricanduva;-17.756;-42.6;941.0;99.999;5.0
376;MG;Arinos;-15.917;-46.11;535.0;99.999;5.0
377;MT;Aripuanã;-10.126;-59.46;0.0;99.999;5.0
378;RO;Ariquemes;-9.913;-63.04;0.0;99.999;5.0
379;SP;Ariranha;-21.188;-48.79;690.0;99.999;5.0
380;PR;Ariranha do Ivaí;-24.386;-51.6;555.0;99.999;5.0
381;RJ;Armação de Búzios;-22.755;-41.76;0.0;99.998;11.0
382;SC;Armazém;-28.262;-49.02;0.0;99.999;5.0
383;CE;Arneiroz;-6.324;-40.13;406.0;99.999;5.0
384;PI;Aroazes;-6.119;-41.79;228.0;99.999;5.0
385;PB;Aroeiras;-7.5;-35.71;0.0;99.999;5.0
386;PI;Arraial;-6.655;-42.5;2.0;99.999;5.0
387;RJ;Arraial do Cabo;-22.966;-42.03;167.0;99.998;11.0
388;TO;Arraias;-12.931;-46.94;404.0;99.999;5.0
389;RS;Arroio do Meio;-29.401;-51.95;0.0;99.999;5.0
390;RS;Arroio do Sal;-29.6;-49.76;0.0;99.999;5.0
391;RS;Arroio do Tigre;-29.333;-53.09;0.0;99.999;5.0
392;RS;Arroio dos Ratos;-30.077;-51.73;0.0;99.999;5.0
393;RS;Arroio Grande;-32.238;-53.09;0.0;99.999;5.0
394;SC;Arroio Trinta;-26.933;-51.34;0.0;99.999;5.0
395;SP;Artur Nogueira;-22.6;-47.17;617.0;99.999;5.0
396;GO;Aruanã;-14.92;-51.08;251.0;99.999;5.0
397;SP;Arujá;-23.396;-46.32;831.0;99.999;5.0
398;SC;Arvoredo;-27.074;-52.46;0.0;99.999;5.0
399;RS;Arvorezinha;-28.756;-52.18;0.0;99.999;5.0
400;SC;Ascurra;-26.955;-49.38;0.0;99.999;5.0
401;SP;Aspásia;-20.159;-50.73;401.0;99.999;5.0
402;PR;Assaí;-23.373;-50.75;464.0;99.999;5.0
403;CE;Assaré;-6.756;-39.76;460.0;99.999;5.0
404;SP;Assis;-22.662;-50.41;0.0;99.999;5.0
405;AC;Assis Brasil;-10.941;-69.6;345.0;99.999;5.0
406;PR;Assis Chateaubriand;-24.42;-53.5;545.0;99.999;5.0
407;PB;Assunção;-7.074;-36.73;538.0;99.999;5.0
408;PI;Assunção do Piauí;-5.756;-41.04;0.0;99.999;5.0
409;MG;Astolfo Dutra;-21.315;-42.76;308.0;99.999;5.0
410;PR;Astorga;-23.233;-51.67;572.0;99.999;5.0
411;AL;Atalaia;-9.5;-36.02;0.0;99.998;11.0
412;PR;Atalaia;-23.151;-52.05;0.0;99.999;5.0
413;AM;Atalaia do Norte;-4.372;-70.19;458.0;99.999;5.0
414;SC;Atalanta;-27.42;-49.78;0.0;99.999;5.0
415;MG;Ataléia;-18.044;-41.11;253.0;99.999;5.0
416;SP;Atibaia;-23.117;-46.6;776.0;99.999;5.0
417;ES;Atilio Vivacqua;-20.914;-41.2;107.0;99.998;11.0
418;TO;Augustinópolis;-5.466;-47.76;143.0;99.999;5.0
419;PA;Augusto Corrêa;-1.022;-46.64;21.0;99.998;11.0
420;MG;Augusto de Lima;-18.109;-44.27;652.0;99.999;5.0
421;RS;Augusto Pestana;-28.5;-53.99;0.0;99.999;5.0
422;RN;Augusto Severo;-5.756;-37.31;0.0;99.999;5.0
423;RS;Áurea;-27.697;-52.05;0.0;99.999;5.0
424;BA;Aurelino Leal;-14.317;-39.33;104.0;99.998;11.0
425;SP;Auriflama;-20.686;-50.6;429.0;99.999;5.0
426;GO;Aurilândia;-16.682;-50.46;551.0;99.999;5.0
427;CE;Aurora;-6.943;-38.97;39.0;99.999;5.0
428;SC;Aurora;-27.315;-49.64;516.0;99.999;5.0
429;PA;Aurora do Pará;-2.134;-47.6;305.0;99.999;5.0
430;TO;Aurora do Tocantins;-12.751;-46.41;0.0;99.999;5.0
431;AM;Autazes;-3.6;-59.13;0.0;99.999;5.0
432;SP;Avaí;-22.147;-49.33;506.0;99.999;5.0
433;SP;Avanhandava;-21.461;-49.95;437.0;99.999;5.0
434;SP;Avaré;-23.099;-48.93;839.0;99.999;5.0
435;PA;Aveiro;-3.606;-55.33;0.0;99.999;5.0
436;PI;Avelino Lopes;-10.137;-43.95;422.0;99.999;5.0
437;GO;Avelinópolis;-16.466;-49.76;723.0;99.999;5.0
438;MA;Axixá;-2.755;-44.05;211.0;99.998;11.0
439;TO;Axixá do Tocantins;-5.616;-47.79;14.0;99.999;5.0
440;TO;Babaçulândia;-7.255;-47.76;238.0;99.999;5.0
441;MA;Bacabal;-4.292;-44.79;18.0;99.999;5.0
442;MA;Bacabeira;-2.971;-44.32;4.0;99.998;11.0
443;MA;Bacuri;-1.75;-45.13;14.0;99.998;11.0
444;MA;Bacurituba;-2.751;-44.74;4.0;99.998;11.0
445;SP;Bady Bassitt;-20.918;-49.45;526.0;99.999;5.0
446;MG;Baependi;-21.959;-44.76;933.0;99.999;5.0
447;RS;Bagé;-31.331;-54.11;0.0;99.999;5.0
448;PA;Bagre;-1.756;-50.13;23.0;99.999;5.0
449;PB;Baía da Traição;-6.688;-34.94;0.0;99.997;16.0
450;RN;Baía Formosa;-6.369;-35.01;0.0;99.998;11.0
451;BA;Baianópolis;-12.306;-44.5;780.0;99.999;5.0
452;PA;Baião;-2.759;-49.67;7.0;99.999;5.0
453;BA;Baixa Grande;-11.96;-40.13;499.0;99.999;5.0
454;PI;Baixa Grande do Ribeiro;-7.756;-45.21;359.0;99.999;5.0
455;CE;Baixio;-6.753;-38.72;263.0;99.999;5.0
456;ES;Baixo Guandu;-19.5;-41.02;140.0;99.999;5.0
457;SP;Balbinos;-21.756;-49.36;439.0;99.999;5.0
458;MG;Baldim;-19.288;-43.96;774.0;99.999;5.0
459;GO;Baliza;-16.196;-52.5;585.0;99.999;5.0
460;SC;Balneário Arroio do Silva;-28.984;-49.41;0.0;99.999;5.0
461;SC;Balneário Barra do Sul;-26.456;-48.61;11.0;99.998;11.0
462;SC;Balneário Camboriú;-26.991;-48.63;0.0;99.999;5.0
463;SC;Balneário Gaivota;-29.157;-49.6;0.0;99.999;5.0
464;RS;Balneário Pinhal;-30.248;-50.23;0.0;99.999;5.0
465;PR;Balsa Nova;-25.6;-49.64;1059.0;99.999;5.0
466;SP;Bálsamo;-20.754;-49.6;506.0;99.999;5.0
467;MA;Balsas;-7.5;-46.04;359.0;99.999;5.0
468;MG;Bambuí;-20.006;-45.98;793.0;99.999;5.0
469;CE;Banabuiú;-5.31;-38.92;181.0;99.999;5.0
470;SP;Bananal;-22.684;-44.32;787.0;99.999;5.0
471;PB;Bananeiras;-6.755;-35.63;0.0;99.998;11.0
472;MG;Bandeira;-15.756;-40.6;939.0;99.999;5.0
473;MG;Bandeira do Sul;-21.753;-46.39;306.0;99.999;5.0
474;SC;Bandeirante;-26.757;-53.64;246.0;99.999;5.0
475;MS;Bandeirantes;-19.918;-54.36;0.0;99.999;5.0
476;PR;Bandeirantes;-23.11;-50.37;594.0;99.999;5.0
477;TO;Bandeirantes do Tocantins;-7.756;-48.6;508.0;99.999;5.0
478;PA;Bannach;-7.348;-50.4;550.0;99.999;5.0
479;BA;Banzaê;-10.6;-38.61;338.0;99.999;5.0
480;RS;Barão;-29.377;-51.5;671.0;99.999;5.0
481;SP;Barão de Antonina;-23.627;-49.6;1284.0;99.999;5.0
482;MG;Barão de Cocais;-19.946;-43.49;0.0;99.999;5.0
483;RS;Barão de Cotegipe;-27.621;-52.38;232.0;99.999;5.0
484;MA;Barão de Grajaú;-6.756;-43.02;0.0;99.999;5.0
485;MT;Barão de Melgaço;-16.194;-55.97;198.0;99.999;5.0
486;MG;Barão de Monte Alto;-21.245;-42.24;0.0;99.999;5.0
487;RS;Barão do Triunfo;-30.388;-51.73;0.0;99.999;5.0
488;PB;Baraúna;-6.643;-36.25;0.0;99.999;5.0
489;RN;Baraúna;-5.08;-37.62;0.0;99.998;11.0
490;MG;Barbacena;-21.226;-43.77;1051.0;99.999;5.0
491;CE;Barbalha;-7.311;-39.3;926.0;99.999;5.0
492;SP;Barbosa;-21.267;-49.95;393.0;99.999;5.0
493;PR;Barbosa Ferraz;-24.03;-52.01;416.0;99.999;5.0
494;PA;Barcarena;-1.5;-48.63;12.0;99.999;5.0
495;RN;Barcelona;-5.951;-35.93;0.0;99.999;5.0
496;AM;Barcelos;-0.975;-62.92;0.0;99.999;5.0
497;SP;Bariri;-22.074;-48.74;473.0;99.999;5.0
498;BA;Barra;-11.089;-43.14;0.0;99.999;5.0
499;SC;Barra Bonita;-26.654;-53.44;516.0;99.999;5.0
500;SP;Barra Bonita;-22.495;-48.6;596.0;99.999;5.0
501;BA;Barra da Estiva;-13.626;-41.33;302.0;99.999;5.0
502;PI;Barra d'Alcântara;-6.5;-42.11;0.0;99.999;5.0
503;PE;Barra de Guabiraba;-8.42;-35.66;0.0;99.998;11.0
504;PB;Barra de Santa Rosa;-6.752;-36.06;0.0;99.999;5.0
505;PB;Barra de Santana;-7.5;-36.0;0.0;99.999;5.0
506;AL;Barra de Santo Antônio;-9.405;-35.5;179.0;99.997;16.0
507;ES;Barra de São Francisco;-18.756;-40.76;0.0;99.998;11.0
508;AL;Barra de São Miguel;-9.755;-35.91;0.0;99.998;11.0
509;PB;Barra de São Miguel;-7.755;-36.32;0.0;99.999;5.0
510;MT;Barra do Bugres;-15.073;-57.18;712.0;99.999;5.0
511;SP;Barra do Chapéu;-24.473;-49.02;875.0;99.999;5.0
512;BA;Barra do Choça;-14.756;-40.6;164.0;99.999;5.0
513;MA;Barra do Corda;-5.5;-45.24;806.0;99.999;5.0
514;MT;Barra do Garças;-15.756;-52.26;0.0;99.999;5.0
515;RS;Barra do Guarita;-27.192;-53.71;473.0;99.999;5.0
516;PR;Barra do Jacaré;-23.115;-50.18;1152.0;99.999;5.0
517;BA;Barra do Mendes;-11.755;-42.06;192.0;99.999;5.0
518;TO;Barra do Ouro;-7.689;-47.68;500.0;99.999;5.0
519;RJ;Barra do Piraí;-22.47;-43.75;0.0;99.999;5.0
520;RS;Barra do Quaraí;-30.257;-57.6;0.0;99.999;5.0
521;RS;Barra do Ribeiro;-30.291;-51.3;0.0;99.999;5.0
522;RS;Barra do Rio Azul;-27.409;-52.41;192.0;99.999;5.0
523;BA;Barra do Rocha;-14.211;-39.6;661.0;99.998;11.0
524;SP;Barra do Turvo;-24.756;-48.5;0.0;99.999;5.0
525;SE;Barra dos Coqueiros;-10.909;-37.04;0.0;99.998;11.0
526;RS;Barra Funda;-27.923;-53.04;448.0;99.999;5.0
527;MG;Barra Longa;-20.283;-43.04;432.0;99.999;5.0
528;RJ;Barra Mansa;-22.5;-44.17;0.0;99.999;5.0
529;SC;Barra Velha;-26.632;-48.68;467.0;99.998;11.0
530;PR;Barracão;-26.254;-53.63;634.0;99.999;5.0
531;RS;Barracão;-27.672;-51.46;0.0;99.999;5.0
532;PI;Barras;-4.244;-42.29;110.0;99.998;11.0
533;CE;Barreira;-4.287;-38.64;107.0;99.998;11.0
534;BA;Barreiras;-12.153;-44.99;413.0;99.999;5.0
535;PI;Barreiras do Piauí;-9.925;-45.48;752.0;99.999;5.0
536;AM;Barreirinha;-2.759;-57.07;0.0;99.999;5.0
537;MA;Barreirinhas;-2.755;-42.75;0.0;99.998;11.0
538;PE;Barreiros;-8.755;-35.19;0.0;99.997;16.0
539;SP;Barretos;-20.6;-48.6;572.0;99.999;5.0
540;SP;Barrinha;-21.194;-48.13;573.0;99.999;5.0
541;CE;Barro;-7.177;-38.78;782.0;99.999;5.0
542;BA;Barro Alto;-11.756;-41.91;789.0;99.999;5.0
543;GO;Barro Alto;-14.971;-48.92;162.0;99.999;5.0
544;PI;Barro Duro;-5.755;-42.5;203.0;99.999;5.0
545;BA;Barro Preto;-14.755;-39.47;436.0;99.998;11.0
546;TO;Barrolândia;-9.755;-48.73;490.0;99.999;5.0
547;CE;Barroquinha;-3.019;-41.14;23.0;99.999;5.0
548;RS;Barros Cassal;-29.093;-52.6;0.0;99.999;5.0
549;MG;Barroso;-21.187;-43.98;992.0;99.999;5.0
550;SP;Barueri;-23.5;-46.76;758.0;99.999;5.0
551;SP;Bastos;-21.922;-50.73;452.0;99.999;5.0
552;MS;Bataguassu;-21.751;-52.42;367.0;99.999;5.0
553;MS;Bataiporã;-22.295;-53.27;0.0;99.999;5.0
554;AL;Batalha;-9.678;-37.12;0.0;99.999;5.0
555;PI;Batalha;-4.025;-42.08;80.0;99.998;11.0
556;SP;Batatais;-20.756;-47.6;866.0;99.999;5.0
557;CE;Baturité;-4.329;-38.76;149.0;99.998;11.0
558;SP;Bauru;-22.315;-49.06;538.0;99.999;5.0
559;PB;Bayeux;-7.125;-34.93;0.0;99.997;16.0
560;SP;Bebedouro;-20.949;-48.48;607.0;99.999;5.0
561;CE;Beberibe;-4.18;-38.13;0.0;99.998;11.0
562;CE;Bela Cruz;-3.051;-40.13;38.0;99.998;11.0
563;MS;Bela Vista;-22.109;-56.5;486.0;99.999;5.0
564;PR;Bela Vista da Caroba;-25.756;-53.66;762.0;99.999;5.0
565;GO;Bela Vista de Goiás;-16.973;-48.95;697.0;99.999;5.0
566;MG;Bela Vista de Minas;-19.755;-43.09;37.0;99.999;5.0
567;MA;Bela Vista do Maranhão;-3.753;-45.31;465.0;99.999;5.0
568;PR;Bela Vista do Paraíso;-22.997;-51.19;337.0;99.999;5.0
569;PI;Bela Vista do Piauí;-7.989;-41.76;824.0;99.999;5.0
570;SC;Bela Vista do Toldo;-26.273;-50.46;0.0;99.999;5.0
571;MA;Belágua;-3.155;-43.5;87.0;99.998;11.0
572;AL;Belém;-9.6;-36.49;0.0;99.998;11.0
573;PA;Belém;-1.456;-48.5;0.0;99.998;11.0
574;PB;Belém;-6.692;-35.5;0.0;99.998;11.0
575;PE;Belém de Maria;-8.626;-35.75;331.0;99.998;11.0
576;PE;Belém de São Francisco;-8.755;-38.97;0.0;99.999;5.0
577;PB;Belém do Brejo do Cruz;-6.189;-37.5;0.0;99.999;5.0
578;PI;Belém do Piauí;-7.376;-40.97;0.0;99.999;5.0
579;RJ;Belford Roxo;-22.756;-43.4;12.0;99.998;11.0
580;MG;Belmiro Braga;-21.949;-43.42;823.0;99.999;5.0
581;BA;Belmonte;-15.756;-38.76;72.0;99.998;11.0
582;SC;Belmonte;-26.755;-53.6;0.0;99.999;5.0
583;BA;Belo Campo;-15.038;-41.26;871.0;99.999;5.0
584;MG;Belo Horizonte;-19.921;-43.94;888.0;99.999;5.0
585;PE;Belo Jardim;-8.336;-36.42;0.0;99.999;5.0
586;AL;Belo Monte;-9.755;-37.28;0.0;99.999;5.0
587;MG;Belo Oriente;-19.22;-42.48;227.0;99.999;5.0
588;MG;Belo Vale;-20.408;-44.02;880.0;99.999;5.0
589;PA;Belterra;-2.636;-54.94;0.0;99.999;5.0
590;PI;Beneditinos;-5.456;-42.36;91.0;99.999;5.0
591;MA;Benedito Leite;-7.223;-44.6;274.0;99.999;5.0
592;SC;Benedito Novo;-26.758;-49.36;0.0;99.999;5.0
593;PA;Benevides;-1.361;-48.24;23.0;99.998;11.0
594;AM;Benjamin Constant;-4.383;-70.03;0.0;99.999;5.0
595;RS;Benjamin Constant do Sul;-27.5;-52.6;0.0;99.999;5.0
596;SP;Bento de Abreu;-21.271;-50.75;388.0;99.999;5.0
597;RN;Bento Fernandes;-5.694;-35.75;0.0;99.999;5.0
598;RS;Bento Gonçalves;-29.171;-51.5;0.0;99.999;5.0
599;MA;Bequimão;-2.449;-44.78;10.0;99.998;11.0
600;MG;Berilo;-16.952;-42.47;523.0;99.999;5.0
601;MG;Berizal;-15.613;-41.75;760.0;99.999;5.0
602;PB;Bernardino Batista;-6.452;-38.6;489.0;99.999;5.0
603;SP;Bernardino de Campos;-23.013;-49.47;629.0;99.999;5.0
604;MA;Bernardo do Mearim;-4.6;-44.76;64.0;99.999;5.0
605;TO;Bernardo Sayão;-7.756;-48.76;181.0;99.999;5.0
606;SP;Bertioga;-23.756;-46.14;8.0;99.998;11.0
607;PI;Bertolínia;-7.641;-43.95;290.0;99.999;5.0
608;MG;Bertópolis;-17.063;-40.6;380.0;99.999;5.0
609;AM;Beruri;-3.756;-61.37;0.0;99.999;5.0
610;PE;Betânia;-8.275;-38.03;479.0;99.999;5.0
611;PI;Betânia do Piauí;-8.148;-40.8;0.0;99.999;5.0
612;MG;Betim;-19.968;-44.2;822.0;99.999;5.0
613;PE;Bezerros;-8.233;-35.8;0.0;99.999;5.0
614;MG;Bias Fortes;-21.606;-43.76;854.0;99.999;5.0
615;MG;Bicas;-21.753;-43.06;590.0;99.999;5.0
616;SC;Biguaçu;-27.494;-48.66;0.0;99.998;11.0
617;SP;Bilac;-21.403;-50.47;410.0;99.999;5.0
618;MG;Biquinhas;-18.758;-45.5;636.0;99.999;5.0
619;SP;Birigui;-21.289;-50.34;434.0;99.999;5.0
620;SP;Biritiba-Mirim;-23.6;-46.04;787.0;99.999;5.0
621;BA;Biritinga;-11.617;-38.75;302.0;99.999;5.0
622;PR;Bituruna;-26.125;-51.6;862.0;99.999;5.0
623;SC;Blumenau;-26.919;-49.07;0.0;99.999;5.0
624;ES;Boa Esperança;-18.5;-40.3;483.0;99.998;11.0
625;MG;Boa Esperança;-21.09;-45.6;476.0;99.999;5.0
626;PR;Boa Esperança;-24.242;-52.79;146.0;99.999;5.0
627;PR;Boa Esperança do Iguaçu;-25.636;-53.21;864.0;99.999;5.0
628;SP;Boa Esperança do Sul;-21.993;-48.39;545.0;99.999;5.0
629;PI;Boa Hora;-4.411;-42.09;120.0;99.999;5.0
630;BA;Boa Nova;-14.363;-40.26;851.0;99.999;5.0
631;PB;Boa Ventura;-7.414;-38.22;917.0;99.999;5.0
632;PR;Boa Ventura de São Roque;-24.756;-51.63;0.0;99.999;5.0
633;CE;Boa Viagem;-5.128;-39.73;310.0;99.999;5.0
634;PB;Boa Vista;-7.259;-36.24;435.0;99.999;5.0
635;RR;Boa Vista;2.755;-60.67;0.0;99.999;5.0
636;PR;Boa Vista da Aparecida;-25.436;-53.41;0.0;99.999;5.0
637;RS;Boa Vista das Missões;-27.663;-53.31;22.0;99.999;5.0
638;RS;Boa Vista do Buricá;-27.669;-54.11;0.0;99.999;5.0
639;MA;Boa Vista do Gurupi;-1.759;-46.3;0.0;99.998;11.0
640;AM;Boa Vista do Ramos;-2.97;-57.6;376.0;99.999;5.0
641;RS;Boa Vista do Sul;-29.351;-51.68;0.0;99.999;5.0
642;BA;Boa Vista do Tupim;-12.66;-40.61;0.0;99.999;5.0
643;AL;Boca da Mata;-9.641;-36.22;0.0;99.998;11.0
644;AM;Boca do Acre;-8.755;-67.4;0.0;99.999;5.0
645;PI;Bocaina;-6.943;-41.32;1305.0;99.999;5.0
646;SP;Bocaina;-22.136;-48.5;0.0;99.999;5.0
647;MG;Bocaina de Minas;-22.126;-44.39;264.0;99.999;5.0
648;SC;Bocaina do Sul;-27.754;-49.94;488.0;99.999;5.0
649;MG;Bocaiúva;-17.108;-43.75;943.0;99.999;5.0
650;PR;Bocaiúva do Sul;-25.256;-49.12;741.0;99.999;5.0
651;RN;Bodó;-5.988;-36.41;514.0;99.999;5.0
652;PE;Bodocó;-7.758;-39.94;0.0;99.999;5.0
653;MS;Bodoquena;-20.5;-56.72;0.0;99.999;5.0
654;SP;Bofete;-23.102;-48.26;542.0;99.999;5.0
655;SP;Boituva;-23.283;-47.67;644.0;99.999;5.0
656;PE;Bom Conselho;-9.126;-36.68;0.0;99.999;5.0
657;MG;Bom Despacho;-19.754;-45.25;678.0;99.999;5.0
658;MA;Bom Jardim;-4.754;-44.35;0.0;99.999;5.0
659;PE;Bom Jardim;-7.76;-35.6;419.0;99.999;5.0
660;RJ;Bom Jardim;-22.152;-42.42;1231.0;99.998;11.0
661;SC;Bom Jardim da Serra;-28.337;-49.62;219.0;99.999;5.0
662;GO;Bom Jardim de Goiás;-16.26;-52.17;0.0;99.999;5.0
663;MG;Bom Jardim de Minas;-21.947;-44.19;590.0;99.999;5.0
664;PB;Bom Jesus;-6.755;-38.66;435.0;99.999;5.0
665;PI;Bom Jesus;-9.074;-44.36;993.0;99.999;5.0
666;RN;Bom Jesus;-5.984;-35.6;769.0;99.999;5.0
667;RS;Bom Jesus;-28.668;-50.42;273.0;99.999;5.0
668;SC;Bom Jesus;-26.753;-52.39;641.0;99.999;5.0
669;BA;Bom Jesus da Lapa;-13.255;-43.42;679.0;99.999;5.0
670;MG;Bom Jesus da Penha;-21.017;-46.5;511.0;99.999;5.0
671;BA;Bom Jesus da Serra;-14.374;-40.5;90.0;99.999;5.0
672;MA;Bom Jesus das Selvas;-4.42;-46.77;245.0;99.999;5.0
673;GO;Bom Jesus de Goiás;-18.214;-49.74;0.0;99.999;5.0
674;MG;Bom Jesus do Amparo;-19.75;-43.47;551.0;99.999;5.0
675;MG;Bom Jesus do Galho;-19.755;-42.32;151.0;99.999;5.0
676;RJ;Bom Jesus do Itabapoana;-21.134;-41.68;288.0;99.998;11.0
677;ES;Bom Jesus do Norte;-21.132;-41.68;775.0;99.998;11.0
678;SC;Bom Jesus do Oeste;-26.69;-53.1;325.0;99.999;5.0
679;PR;Bom Jesus do Sul;-26.193;-53.6;456.0;99.999;5.0
680;PA;Bom Jesus do Tocantins;-5.051;-48.61;0.0;99.999;5.0
681;TO;Bom Jesus do Tocantins;-8.965;-48.13;0.0;99.999;5.0
682;SP;Bom Jesus dos Perdões;-23.135;-46.47;0.0;99.999;5.0
683;MA;Bom Lugar;-4.22;-45.04;52.0;99.999;5.0
684;RS;Bom Princípio;-29.489;-51.35;53.0;99.999;5.0
685;PI;Bom Princípio do Piauí;-3.191;-41.64;0.0;99.999;5.0
686;RS;Bom Progresso;-27.5;-53.76;0.0;99.999;5.0
687;MG;Bom Repouso;-22.471;-46.15;1438.0;99.999;5.0
688;SC;Bom Retiro;-27.76;-49.49;0.0;99.999;5.0
689;RS;Bom Retiro do Sul;-29.609;-51.94;0.0;99.999;5.0
690;MG;Bom Sucesso;-21.033;-44.76;1001.0;99.999;5.0
691;PB;Bom Sucesso;-6.445;-37.93;615.0;99.999;5.0
692;PR;Bom Sucesso;-23.751;-51.76;883.0;99.999;5.0
693;SP;Bom Sucesso de Itararé;-24.318;-49.14;0.0;99.999;5.0
694;PR;Bom Sucesso do Sul;-26.076;-52.75;529.0;99.999;5.0
695;SC;Bombinhas;-27.132;-48.5;0.0;99.999;5.0
696;MG;Bonfim;-20.327;-44.24;409.0;99.999;5.0
697;RR;Bonfim;3.36;-59.75;832.0;99.999;5.0
698;PI;Bonfim do Piauí;-9.126;-42.76;0.0;99.999;5.0
699;GO;Bonfinópolis;-16.618;-48.96;839.0;99.999;5.0
700;MG;Bonfinópolis de Minas;-16.6;-45.99;883.0;99.999;5.0
701;BA;Boninal;-12.75;-41.75;990.0;99.999;5.0
702;BA;Bonito;-11.969;-41.27;808.0;99.999;5.0
703;MS;Bonito;-21.121;-56.48;0.0;99.999;5.0
704;PA;Bonito;-1.363;-47.31;953.0;99.998;11.0
705;PE;Bonito;-8.47;-35.73;0.0;99.998;11.0
706;MG;Bonito de Minas;-15.323;-44.75;67.0;99.999;5.0
707;PB;Bonito de Santa Fé;-7.313;-38.5;0.0;99.999;5.0
708;GO;Bonópolis;-13.636;-49.75;258.0;99.999;5.0
709;PB;Boqueirão;-7.482;-36.14;0.0;99.999;5.0
710;RS;Boqueirão do Leão;-29.304;-52.43;106.0;99.999;5.0
711;PI;Boqueirão do Piauí;-4.487;-42.07;0.0;99.999;5.0
712;SE;Boquim;-11.147;-37.62;0.0;99.998;11.0
713;BA;Boquira;-12.755;-42.73;544.0;99.999;5.0
714;SP;Borá;-22.27;-50.5;493.0;99.999;5.0
715;SP;Boracéia;-22.193;-48.78;479.0;99.999;5.0
716;AM;Borba;-4.388;-59.6;0.0;99.999;5.0
717;PB;Borborema;-6.755;-35.6;0.0;99.998;11.0
718;SP;Borborema;-21.62;-49.07;415.0;99.999;5.0
719;MG;Borda da Mata;-22.274;-46.13;859.0;99.999;5.0
720;SP;Borebi;-22.6;-48.97;660.0;99.999;5.0
721;PR;Borrazópolis;-23.941;-51.6;622.0;99.999;5.0
722;RS;Bossoroca;-28.753;-54.9;0.0;99.999;5.0
723;MG;Botelhos;-21.633;-46.4;1031.0;99.999;5.0
724;SP;Botucatu;-22.756;-48.45;812.0;99.999;5.0
725;MG;Botumirim;-16.756;-43.01;830.0;99.999;5.0
726;BA;Botuporã;-13.382;-42.5;656.0;99.999;5.0
727;SC;Botuverá;-27.199;-49.07;0.0;99.999;5.0
728;SC;Braço do Norte;-28.275;-49.13;0.0;99.999;5.0
729;SC;Braço do Trombudo;-27.358;-49.76;0.0;99.999;5.0
730;RS;Braga;-27.614;-53.74;818.0;99.999;5.0
731;PA;Bragança;-1.054;-46.77;28.0;99.998;11.0
732;SP;Bragança Paulista;-22.952;-46.5;611.0;99.999;5.0
733;PR;Braganey;-24.755;-53.12;0.0;99.999;5.0
734;AL;Branquinha;-9.246;-36.02;0.0;99.998;11.0
735;MG;Brás Pires;-20.921;-43.24;659.0;99.999;5.0
736;PA;Brasil Novo;-3.305;-53.5;192.0;99.999;5.0
737;MS;Brasilândia;-21.256;-52.04;517.0;99.999;5.0
738;MG;Brasilândia de Minas;-17.01;-46.01;335.0;99.999;5.0
739;PR;Brasilândia do Sul;-24.197;-53.5;220.0;99.999;5.0
740;TO;Brasilândia do Tocantins;-8.388;-48.48;392.0;99.999;5.0
741;AC;Brasiléia;-11.016;-68.75;0.0;99.999;5.0
742;PI;Brasileira;-4.132;-41.78;130.0;99.999;5.0
743;DF;Brasília;-15.758;-47.93;783.0;99.999;5.0
744;MG;Brasília de Minas;-16.256;-44.43;1075.0;99.999;5.0
745;MT;Brasnorte;-12.155;-57.98;0.0;99.999;5.0
746;MG;Brasópolis;-22.474;-45.61;0.0;99.999;5.0
747;SP;Braúna;-21.499;-50.32;492.0;99.999;5.0
748;MG;Braúnas;-19.056;-42.72;473.0;99.999;5.0
749;GO;Brazabrantes;-16.431;-49.39;822.0;99.999;5.0
750;PE;Brejão;-9.03;-36.6;0.0;99.999;5.0
751;ES;Brejetuba;-20.146;-41.29;755.0;99.999;5.0
752;PE;Brejinho;-7.349;-37.29;261.0;99.999;5.0
753;RN;Brejinho;-6.191;-35.36;0.0;99.998;11.0
754;TO;Brejinho de Nazaré;-11.0;-48.6;0.0;99.999;5.0
755;MA;Brejo;-3.684;-42.75;380.0;99.998;11.0
756;SP;Brejo Alegre;-21.126;-50.19;0.0;99.999;5.0
757;PE;Brejo da Madre de Deus;-8.146;-36.37;176.0;99.999;5.0
758;MA;Brejo de Areia;-4.112;-45.5;0.0;99.999;5.0
759;PB;Brejo do Cruz;-6.349;-37.5;382.0;99.999;5.0
760;PI;Brejo do Piauí;-8.214;-42.75;0.0;99.999;5.0
761;PB;Brejo dos Santos;-6.377;-37.75;167.0;99.999;5.0
762;SE;Brejo Grande;-10.429;-36.47;0.0;99.998;11.0
763;PA;Brejo Grande do Araguaia;-5.699;-48.41;435.0;99.999;5.0
764;CE;Brejo Santo;-7.493;-38.99;698.0;99.999;5.0
765;BA;Brejões;-13.104;-39.8;465.0;99.999;5.0
766;BA;Brejolândia;-12.483;-43.97;79.0;99.999;5.0
767;PA;Breu Branco;-4.068;-49.64;44.0;99.999;5.0
768;PA;Breves;-1.682;-50.48;14.0;99.999;5.0
769;GO;Britânia;-15.241;-51.13;276.0;99.999;5.0
770;RS;Brochier;-29.5;-51.6;0.0;99.999;5.0
771;SP;Brodósqui;-20.991;-47.66;0.0;99.999;5.0
772;SP;Brotas;-22.284;-48.13;878.0;99.999;5.0
773;BA;Brotas de Macaúbas;-11.999;-42.63;673.0;99.999;5.0
774;MG;Brumadinho;-20.143;-44.2;817.0;99.999;5.0
775;BA;Brumado;-14.254;-41.67;737.0;99.999;5.0
776;SC;Brunópolis;-27.306;-50.76;0.0;99.999;5.0
777;SC;Brusque;-27.098;-48.92;0.0;99.999;5.0
778;MG;Bueno Brandão;-22.441;-46.35;1231.0;99.999;5.0
779;MG;Buenópolis;-17.756;-44.18;625.0;99.999;5.0
780;AR;Buenos Aires;-34.36;-58.27;0.0;99.999;5.0
781;PE;Buenos Aires;-7.753;-35.33;0.0;99.998;11.0
782;BA;Buerarema;-14.959;-39.3;139.0;99.998;11.0
783;MG;Bugre;-19.426;-42.24;262.0;99.999;5.0
784;PE;Buíque;-8.623;-37.16;0.0;99.999;5.0
785;AC;Bujari;-9.755;-67.95;0.0;99.999;5.0
786;PA;Bujaru;-1.5;-48.04;31.0;99.998;11.0
787;SP;Buri;-23.76;-48.6;607.0;99.999;5.0
788;SP;Buritama;-21.066;-50.15;406.0;99.999;5.0
789;MA;Buriti;-3.942;-42.93;746.0;99.998;11.0
790;GO;Buriti Alegre;-18.14;-49.04;194.0;99.999;5.0
791;MA;Buriti Bravo;-5.755;-43.75;556.0;99.999;5.0
792;GO;Buriti de Goiás;-16.181;-50.43;118.0;99.999;5.0
793;TO;Buriti do Tocantins;-5.315;-48.23;73.0;99.999;5.0
794;PI;Buriti dos Lopes;-3.175;-41.76;301.0;99.999;5.0
795;PI;Buriti dos Montes;-5.312;-41.1;333.0;99.999;5.0
796;MA;Buriticupu;-4.346;-46.4;117.0;99.999;5.0
797;GO;Buritinópolis;-14.457;-46.44;693.0;99.999;5.0
798;BA;Buritirama;-10.751;-43.63;564.0;99.999;5.0
799;MA;Buritirama;-5.6;-47.02;0.0;99.999;5.0
800;MG;Buritis;-15.618;-46.42;606.0;99.999;5.0
801;RO;Buritis;-10.212;-63.75;0.0;99.999;5.0
802;SP;Buritizal;-20.191;-47.71;780.0;99.999;5.0
803;MG;Buritizeiro;-17.351;-44.96;716.0;99.999;5.0
804;RS;Butiá;-30.12;-51.96;0.0;99.999;5.0
805;AM;Caapiranga;-3.328;-61.26;0.0;99.999;5.0
806;PB;Caaporã;-7.5;-34.91;0.0;99.997;16.0
807;MS;Caarapó;-22.634;-54.75;0.0;99.999;5.0
808;BA;Caatiba;-14.977;-40.41;323.0;99.999;5.0
809;PB;Cabaceiras;-7.489;-36.29;216.0;99.999;5.0
810;BA;Cabaceiras do Paraguaçu;-12.5;-39.19;0.0;99.999;5.0
811;MG;Cabeceira Grande;-16.03;-47.09;839.0;99.999;5.0
812;GO;Cabeceiras;-15.755;-46.93;107.0;99.999;5.0
813;PI;Cabeceiras do Piauí;-4.476;-42.31;917.0;99.998;11.0
814;PB;Cabedelo;-6.981;-34.75;0.0;99.997;16.0
815;RO;Cabixi;-13.498;-60.6;0.0;99.999;5.0
816;PE;Cabo de Santo Agostinho;-8.287;-35.04;0.0;99.997;16.0
817;RJ;Cabo Frio;-22.756;-42.02;6.0;99.998;11.0
818;MG;Cabo Verde;-21.472;-46.4;879.0;99.999;5.0
819;SP;Cabrália Paulista;-22.456;-49.34;551.0;99.999;5.0
820;SP;Cabreúva;-23.308;-47.13;794.0;99.999;5.0
821;PE;Cabrobó;-8.5;-39.31;386.0;99.999;5.0
822;SC;Caçador;-26.758;-51.02;0.0;99.999;5.0
823;SP;Caçapava;-23.101;-45.71;0.0;99.999;5.0
824;RS;Caçapava do Sul;-30.5;-53.49;564.0;99.999;5.0
825;RO;Cacaulândia;-10.339;-62.76;0.0;99.999;5.0
826;RS;Cacequi;-29.756;-54.75;0.0;99.999;5.0
827;MT;Cáceres;-16.071;-57.68;0.0;99.999;5.0
828;BA;Cachoeira;-12.618;-38.96;562.0;99.998;11.0
829;GO;Cachoeira Alta;-18.756;-50.94;690.0;99.999;5.0
830;MG;Cachoeira da Prata;-19.5;-44.45;710.0;99.999;5.0
831;GO;Cachoeira de Goiás;-16.668;-50.65;845.0;99.999;5.0
832;MG;Cachoeira de Minas;-22.355;-45.78;759.0;99.999;5.0
833;MG;Cachoeira de Pajeú;-15.966;-41.5;5.0;99.999;5.0
834;PA;Cachoeira do Arari;-1.011;-48.96;40.0;99.999;5.0
835;PA;Cachoeira do Piriá;-1.756;-46.5;0.0;99.998;11.0
836;RS;Cachoeira do Sul;-30.039;-52.76;0.0;99.999;5.0
837;PB;Cachoeira dos µndios;-6.927;-38.67;411.0;99.999;5.0
838;GO;Cachoeira Dourada;-18.492;-49.48;481.0;99.999;5.0
839;MG;Cachoeira Dourada;-18.5;-49.5;64.0;99.999;5.0
840;MA;Cachoeira Grande;-2.927;-44.06;571.0;99.998;11.0
841;SP;Cachoeira Paulista;-22.665;-45.01;25.0;99.999;5.0
842;RJ;Cachoeiras de Macacu;-22.463;-42.65;33.0;99.998;11.0
843;PE;Cachoeirinha;-8.486;-36.23;0.0;99.999;5.0
844;RS;Cachoeirinha;-29.951;-51.09;0.0;99.999;5.0
845;TO;Cachoeirinha;-6.122;-47.92;231.0;99.999;5.0
846;ES;Cachoeiro de Itapemirim;-20.755;-41.11;90.0;99.998;11.0
847;PB;Cacimba de Areia;-7.129;-37.16;0.0;99.999;5.0
848;PB;Cacimba de Dentro;-6.642;-35.79;0.0;99.999;5.0
849;PB;Cacimbas;-7.211;-37.06;0.0;99.999;5.0
850;AL;Cacimbinhas;-9.4;-36.99;0.0;99.999;5.0
851;RS;Cacique Doble;-27.757;-51.66;0.0;99.999;5.0
852;RO;Cacoal;-11.439;-61.45;0.0;99.999;5.0
853;SP;Caconde;-21.5;-46.64;824.0;99.999;5.0
854;GO;Caçu;-18.6;-51.13;534.0;99.999;5.0
855;BA;Caculé;-14.5;-42.22;645.0;99.999;5.0
856;BA;Caém;-11.091;-40.44;423.0;99.999;5.0
857;MG;Caetanópolis;-19.295;-44.42;762.0;99.999;5.0
858;BA;Caetanos;-14.338;-40.91;414.0;99.999;5.0
859;MG;Caeté;-19.756;-43.67;1037.0;99.999;5.0
860;PE;Caetés;-8.757;-36.62;0.0;99.999;5.0
861;BA;Caetité;-14.069;-42.48;888.0;99.999;5.0
862;BA;Cafarnaum;-11.694;-41.47;785.0;99.999;5.0
863;PR;Cafeara;-22.759;-51.72;427.0;99.999;5.0
864;PR;Cafelândia;-24.618;-53.32;572.0;99.999;5.0
865;SP;Cafelândia;-21.755;-49.61;435.0;99.999;5.0
866;PR;Cafezal do Sul;-23.902;-53.5;308.0;99.999;5.0
867;SP;Caiabu;-22.012;-51.24;402.0;99.999;5.0
868;MG;Caiana;-20.696;-41.93;860.0;99.999;5.0
869;GO;Caiapônia;-16.957;-51.75;705.0;99.999;5.0
870;RS;Caibaté;-28.288;-54.64;0.0;99.999;5.0
871;SC;Caibi;-27.072;-53.25;0.0;99.999;5.0
872;PB;Caiçara;-6.615;-35.47;0.0;99.998;11.0
873;RS;Caiçara;-27.274;-53.43;0.0;99.999;5.0
874;RN;Caiçara do Norte;-5.064;-36.06;0.0;99.999;5.0
875;RN;Caiçara do Rio do Vento;-5.756;-36.0;0.0;99.999;5.0
876;RN;Caicó;-6.458;-37.1;0.0;99.999;5.0
877;SP;Caieiras;-23.364;-46.74;782.0;99.999;5.0
878;BA;Cairu;-13.487;-39.04;4.0;99.998;11.0
879;SP;Caiuá;-21.755;-52.0;341.0;99.999;5.0
880;SP;Cajamar;-23.356;-46.76;807.0;99.999;5.0
881;MA;Cajapió;-2.756;-44.67;10.0;99.998;11.0
882;MA;Cajari;-3.321;-45.01;9.0;99.998;11.0
883;SP;Cajati;-24.754;-48.12;109.0;99.999;5.0
884;PB;Cajazeiras;-6.756;-38.6;170.0;99.999;5.0
885;PI;Cajazeiras do Piauí;-6.757;-42.39;310.0;99.999;5.0
886;PB;Cajazeirinhas;-6.961;-37.75;0.0;99.999;5.0
887;SP;Cajobi;-20.756;-48.75;515.0;99.999;5.0
888;AL;Cajueiro;-9.397;-36.15;21.0;99.998;11.0
889;PI;Cajueiro da Praia;-2.928;-41.34;0.0;99.999;5.0
890;MG;Cajuri;-20.759;-42.8;727.0;99.999;5.0
891;SP;Cajuru;-21.275;-47.3;797.0;99.999;5.0
892;PE;Calçado;-8.754;-36.33;0.0;99.999;5.0
893;AP;Calçoene;2.498;-50.95;0.0;99.998;11.0
894;MG;Caldas;-21.924;-46.39;0.0;99.999;5.0
895;PB;Caldas Brandão;-7.103;-35.33;695.0;99.998;11.0
896;GO;Caldas Novas;-17.754;-48.63;1119.0;99.999;5.0
897;GO;Caldazinha;-16.751;-49.0;712.0;99.999;5.0
898;BA;Caldeirão Grande;-11.02;-40.3;616.0;99.999;5.0
899;PI;Caldeirão Grande do Piauí;-7.332;-40.64;408.0;99.999;5.0
900;PR;Califórnia;-23.65;-51.36;688.0;99.999;5.0
901;SC;Calmon;-26.6;-51.1;0.0;99.999;5.0
902;PE;Calumbi;-7.941;-38.15;0.0;99.999;5.0
903;BA;Camacan;-15.419;-39.5;143.0;99.998;11.0
904;BA;Camaçari;-12.698;-38.32;0.0;99.998;11.0
905;MG;Camacho;-20.625;-45.16;986.0;99.999;5.0
906;PB;Camalaú;-7.756;-36.75;0.0;99.999;5.0
907;BA;Camamu;-13.945;-39.1;153.0;99.997;16.0
908;MG;Camanducaia;-22.756;-46.14;1452.0;99.999;5.0
909;MS;Camapuã;-19.5;-54.04;561.0;99.999;5.0
910;RS;Camaquã;-30.756;-51.75;0.0;99.999;5.0
911;PE;Camaragibe;-8.022;-34.98;0.0;99.997;16.0
912;RS;Camargo;-28.6;-52.25;0.0;99.999;5.0
913;PR;Cambará;-23.046;-50.07;0.0;99.999;5.0
914;RS;Cambará do Sul;-29.048;-50.14;406.0;99.999;5.0
915;PR;Cambé;-23.276;-51.28;562.0;99.999;5.0
916;PR;Cambira;-23.6;-51.6;631.0;99.999;5.0
917;SC;Camboriú;-27.025;-48.65;0.0;99.999;5.0
918;RJ;Cambuci;-21.6;-41.91;747.0;99.998;11.0
919;MG;Cambuí;-22.612;-46.06;891.0;99.999;5.0
920;MG;Cambuquira;-21.756;-45.3;896.0;99.999;5.0
921;PA;Cametá;-2.244;-49.5;10.0;99.999;5.0
922;CE;Camocim;-2.902;-40.75;0.0;99.999;5.0
923;PE;Camocim de São Félix;-8.359;-35.76;6.0;99.999;5.0
924;MG;Campanário;-18.239;-41.75;296.0;99.999;5.0
925;MG;Campanha;-21.755;-45.4;916.0;99.999;5.0
926;AL;Campestre;-8.755;-35.6;0.0;99.998;11.0
927;MG;Campestre;-21.751;-46.25;690.0;99.999;5.0
928;RS;Campestre da Serra;-28.759;-51.09;185.0;99.999;5.0
929;GO;Campestre de Goiás;-16.756;-49.69;0.0;99.999;5.0
930;MA;Campestre do Maranhão;-6.172;-47.36;1119.0;99.999;5.0
931;PR;Campina da Lagoa;-24.6;-52.8;568.0;99.999;5.0
932;RS;Campina das Missões;-27.989;-54.75;0.0;99.999;5.0
933;SP;Campina do Monte Alegre;-23.6;-48.48;600.0;99.999;5.0
934;PR;Campina do Simão;-25.079;-51.75;1104.0;99.999;5.0
935;PB;Campina Grande;-7.231;-35.76;1096.0;99.999;5.0
936;PR;Campina Grande do Sul;-25.306;-49.06;0.0;99.999;5.0
937;MG;Campina Verde;-19.5;-49.49;632.0;99.999;5.0
938;GO;Campinaçu;-13.759;-48.6;776.0;99.999;5.0
939;MT;Campinápolis;-14.5;-52.76;523.0;99.999;5.0
940;SP;Campinas;-22.906;-47.06;252.0;99.999;5.0
941;PI;Campinas do Piauí;-7.66;-41.76;0.0;99.999;5.0
942;RS;Campinas do Sul;-27.752;-52.63;641.0;99.999;5.0
943;GO;Campinorte;-14.311;-49.15;635.0;99.999;5.0
944;AL;Campo Alegre;-9.758;-36.35;887.0;99.998;11.0
945;SC;Campo Alegre;-26.193;-49.27;473.0;99.999;5.0
946;GO;Campo Alegre de Goiás;-17.633;-47.78;407.0;99.999;5.0
947;BA;Campo Alegre de Lourdes;-9.5;-43.01;0.0;99.999;5.0
948;PI;Campo Alegre do Fidalgo;-8.376;-41.75;864.0;99.999;5.0
949;MG;Campo Azul;-16.5;-44.75;679.0;99.999;5.0
950;MG;Campo Belo;-20.756;-45.28;0.0;99.999;5.0
951;SC;Campo Belo do Sul;-27.756;-50.76;817.0;99.999;5.0
952;RS;Campo Bom;-29.679;-51.05;0.0;99.999;5.0
953;PR;Campo Bonito;-25.031;-52.99;671.0;99.999;5.0
954;SE;Campo do Brito;-10.753;-37.49;0.0;99.998;11.0
955;MG;Campo do Meio;-21.107;-45.75;784.0;99.999;5.0
956;PR;Campo do Tenente;-25.978;-49.68;849.0;99.999;5.0
957;SC;Campo Erê;-26.394;-53.08;880.0;99.999;5.0
958;MG;Campo Florido;-19.756;-48.6;648.0;99.999;5.0
959;BA;Campo Formoso;-10.5;-40.32;544.0;99.999;5.0
960;AL;Campo Grande;-9.958;-36.79;394.0;99.999;5.0
961;MS;Campo Grande;-20.443;-54.65;0.0;99.999;5.0
962;PI;Campo Grande do Piauí;-7.132;-41.04;463.0;99.999;5.0
963;PR;Campo Largo;-25.459;-49.5;110.0;99.999;5.0
964;PI;Campo Largo do Piauí;-3.755;-42.63;768.0;99.998;11.0
965;SP;Campo Limpo Paulista;-23.256;-46.78;826.0;99.999;5.0
966;PR;Campo Magro;-25.369;-49.45;796.0;99.999;5.0
967;PI;Campo Maior;-4.755;-42.13;131.0;99.999;5.0
968;PR;Campo Mourão;-24.046;-52.38;587.0;99.999;5.0
969;RS;Campo Novo;-27.675;-53.75;0.0;99.999;5.0
970;RO;Campo Novo de Rondônia;-10.6;-63.61;0.0;99.999;5.0
971;MT;Campo Novo do Parecis;-13.675;-57.76;0.0;99.999;5.0
972;RN;Campo Redondo;-6.241;-36.18;0.0;99.999;5.0
973;MT;Campo Verde;-15.5;-55.13;0.0;99.999;5.0
974;MG;Campos Altos;-19.696;-46.17;983.0;99.999;5.0
975;GO;Campos Belos;-13.037;-46.77;691.0;99.999;5.0
976;RS;Campos Borges;-28.756;-53.0;0.0;99.999;5.0
977;MT;Campos de Júlio;-13.756;-59.15;0.0;99.999;5.0
978;SP;Campos do Jordão;-22.754;-45.6;1593.0;99.999;5.0
979;RJ;Campos dos Goytacazes;-21.755;-41.32;9.0;99.998;11.0
980;MG;Campos Gerais;-21.235;-45.76;860.0;99.999;5.0
981;TO;Campos Lindos;-7.994;-46.76;424.0;99.999;5.0
982;SC;Campos Novos;-27.402;-51.23;460.0;99.999;5.0
983;SP;Campos Novos Paulista;-22.603;-50.0;0.0;99.999;5.0
984;CE;Campos Sales;-7.074;-40.38;555.0;99.999;5.0
985;GO;Campos Verdes;-14.258;-49.66;343.0;99.999;5.0
986;PE;Camutanga;-7.407;-35.27;0.0;99.998;11.0
987;MT;Cana Brava do Norte;-11.054;-51.75;0.0;99.999;5.0
988;MG;Cana Verde;-21.021;-45.18;820.0;99.999;5.0
989;MG;Canaã;-20.686;-42.62;234.0;99.999;5.0
990;PA;Canaã dos Carajás;-6.497;-49.76;736.0;99.999;5.0
991;SP;Cananéia;-25.015;-47.93;0.0;99.998;11.0
992;AL;Canapi;-9.117;-37.6;0.0;99.999;5.0
993;BA;Canápolis;-13.07;-44.25;714.0;99.999;5.0
994;MG;Canápolis;-18.753;-49.25;579.0;99.999;5.0
995;BA;Canarana;-11.685;-41.77;772.0;99.999;5.0
996;MT;Canarana;-13.6;-52.27;378.0;99.999;5.0
997;SP;Canas;-22.75;-45.06;574.0;99.999;5.0
998;PI;Canavieira;-7.688;-43.72;234.0;99.999;5.0
999;BA;Canavieiras;-15.675;-38.95;6.0;99.998;11.0
1000;BA;Candeal;-11.755;-39.12;221.0;99.999;5.0
1001;BA;Candeias;-12.668;-38.6;0.0;99.998;11.0
1002;MG;Candeias;-20.757;-45.28;0.0;99.999;5.0
1003;RO;Candeias do Jamari;-8.755;-63.7;976.0;99.999;5.0
1004;RS;Candelária;-29.669;-52.79;0.0;99.999;5.0
1005;BA;Candiba;-14.411;-42.76;576.0;99.999;5.0
1006;PR;Cândido de Abreu;-24.6;-51.33;620.0;99.999;5.0
1007;RS;Cândido Godói;-27.952;-54.75;0.0;99.999;5.0
1008;MA;Cândido Mendes;-1.447;-45.72;22.0;99.998;11.0
1009;SP;Cândido Mota;-22.755;-50.39;479.0;99.999;5.0
1010;SP;Cândido Rodrigues;-21.325;-48.63;551.0;99.999;5.0
1011;BA;Cândido Sales;-15.5;-41.24;823.0;99.999;5.0
1012;RS;Candiota;-31.6;-53.67;0.0;99.999;5.0
1013;PR;Candói;-25.6;-52.06;878.0;99.999;5.0
1014;RS;Canela;-29.366;-50.75;0.0;99.999;5.0
1015;SC;Canelinha;-27.265;-48.77;0.0;99.999;5.0
1016;RN;Canguaretama;-6.38;-35.13;0.0;99.998;11.0
1017;RS;Canguçu;-31.395;-52.68;0.0;99.999;5.0
1018;SE;Canhoba;-10.138;-36.98;0.0;99.999;5.0
1019;PE;Canhotinho;-8.756;-36.19;0.0;99.999;5.0
1020;CE;Canindé;-4.359;-39.31;0.0;99.999;5.0
1021;SE;Canindé de São Francisco;-9.66;-37.79;244.0;99.999;5.0
1022;SP;Canitar;-23.006;-49.78;507.0;99.999;5.0
1023;RS;Canoas;-29.918;-51.18;0.0;99.999;5.0
1024;SC;Canoinhas;-26.177;-50.39;769.0;99.999;5.0
1025;BA;Cansanção;-10.667;-39.5;407.0;99.999;5.0
1026;RR;Cantá;2.61;-60.6;645.0;99.999;5.0
1027;MG;Cantagalo;-18.5;-42.63;866.0;99.999;5.0
1028;PR;Cantagalo;-25.374;-52.13;455.0;99.999;5.0
1029;RJ;Cantagalo;-21.981;-42.37;51.0;99.998;11.0
1030;MA;Cantanhede;-3.633;-44.38;0.0;99.998;11.0
1031;PI;Canto do Buriti;-8.11;-42.94;491.0;99.999;5.0
1032;BA;Canudos;-9.756;-39.03;441.0;99.999;5.0
1033;AM;Canutama;-6.5;-64.38;0.0;99.999;5.0
1034;PA;Capanema;-1.196;-47.18;27.0;99.998;11.0
1035;PR;Capanema;-25.672;-53.75;273.0;99.999;5.0
1036;SC;Capão Alto;-27.937;-50.5;0.0;99.999;5.0
1037;SP;Capâo Bonito;-24.006;-48.35;677.0;99.999;5.0
1038;RS;Capão da Canoa;-29.755;-50.01;0.0;99.999;5.0
1039;RS;Capão do Leão;-31.756;-52.48;0.0;99.999;5.0
1040;MG;Caparaó;-20.5;-41.9;896.0;99.999;5.0
1041;AL;Capela;-9.408;-36.07;0.0;99.998;11.0
1042;SE;Capela;-10.5;-37.05;356.0;99.998;11.0
1043;RS;Capela de Santana;-29.75;-51.32;601.0;99.999;5.0
1044;SP;Capela do Alto;-23.471;-47.73;787.0;99.999;5.0
1045;BA;Capela do Alto Alegre;-11.668;-39.75;0.0;99.999;5.0
1046;MG;Capela Nova;-20.923;-43.62;0.0;99.999;5.0
1047;MG;Capelinha;-17.691;-42.5;897.0;99.999;5.0
1048;MG;Capetinga;-20.616;-47.05;814.0;99.999;5.0
1049;PB;Capim;-6.916;-35.17;855.0;99.998;11.0
1050;MG;Capim Branco;-19.5;-44.12;407.0;99.999;5.0
1051;BA;Capim Grosso;-11.381;-40.01;0.0;99.999;5.0
1052;MG;Capinópolis;-18.682;-49.6;530.0;99.999;5.0
1053;SC;Capinzal;-27.344;-51.61;109.0;99.999;5.0
1054;MA;Capinzal do Norte;-4.753;-44.33;0.0;99.999;5.0
1055;CE;Capistrano;-4.47;-38.9;148.0;99.999;5.0
1056;RS;Capitão;-29.269;-51.99;223.0;99.999;5.0
1057;MG;Capitão Andrade;-19.068;-41.76;169.0;99.999;5.0
1058;PI;Capitão de Campos;-4.457;-41.94;602.0;99.999;5.0
1059;MG;Capitão Enéas;-16.324;-43.71;348.0;99.999;5.0
1060;PI;Capitão Gervásio Oliveira;-8.49;-41.75;359.0;99.999;5.0
1061;PR;Capitão Leônidas Marques;-25.479;-53.61;63.0;99.999;5.0
1062;PA;Capitão Poço;-1.755;-47.06;0.0;99.998;11.0
1063;MG;Capitólio;-20.615;-46.05;930.0;99.999;5.0
1064;SP;Capivari;-22.995;-47.5;0.0;99.999;5.0
1065;SC;Capivari de Baixo;-28.445;-48.96;0.0;99.999;5.0
1066;RS;Capivari do Sul;-30.145;-50.5;513.0;99.999;5.0
1067;AC;Capixaba;-10.6;-67.68;0.0;99.999;5.0
1068;PE;Capoeiras;-8.753;-36.63;0.0;99.999;5.0
1069;MG;Caputira;-20.172;-42.27;645.0;99.999;5.0
1070;RS;Caraã;-29.759;-50.44;0.0;99.999;5.0
1071;RR;Caracaraí;1.755;-61.13;0.0;99.999;5.0
1072;MS;Caracol;-22.014;-57.02;0.0;99.999;5.0
1073;PI;Caracol;-9.279;-43.33;696.0;99.999;5.0
1074;SP;Caraguatatuba;-23.62;-45.41;6.0;99.998;11.0
1075;MG;Caraí;-17.189;-41.69;519.0;99.999;5.0
1076;BA;Caraíbas;-14.753;-41.26;818.0;99.999;5.0
1077;PR;Carambeí;-24.918;-50.1;952.0;99.999;5.0
1078;MG;Caranaíba;-20.756;-43.74;814.0;99.999;5.0
1079;MG;Carandaí;-20.954;-43.75;1119.0;99.999;5.0
1080;MG;Carangola;-20.753;-42.03;644.0;99.999;5.0
1081;RJ;Carapebus;-22.187;-41.66;8.0;99.998;11.0
1082;SP;Carapicuíba;-23.5;-46.75;802.0;99.999;5.0
1083;MG;Caratinga;-19.759;-42.14;687.0;99.999;5.0
1084;AM;Carauari;-4.756;-66.76;0.0;99.999;5.0
1085;PB;Caraúbas;-7.753;-36.49;39.0;99.999;5.0
1086;RN;Caraúbas;-5.759;-37.6;0.0;99.999;5.0
1087;PI;Caraúbas do Piauí;-3.476;-41.75;0.0;99.999;5.0
1088;BA;Caravelas;-17.753;-39.27;83.0;99.998;11.0
1089;RS;Carazinho;-28.284;-52.79;0.0;99.999;5.0
1090;MG;Carbonita;-17.5;-43.02;863.0;99.999;5.0
1091;BA;Cardeal da Silva;-11.942;-37.95;0.0;99.998;11.0
1092;SP;Cardoso;-20.082;-49.91;97.0;99.999;5.0
1093;RJ;Cardoso Moreira;-21.488;-41.62;448.0;99.998;11.0
1094;MG;Careaçu;-22.043;-45.7;894.0;99.999;5.0
1095;AM;Careiro;-3.757;-60.37;0.0;99.999;5.0
1096;AM;Careiro da Várzea;-3.25;-59.75;0.0;99.999;5.0
1097;ES;Cariacica;-20.264;-40.42;112.0;99.998;11.0
1098;CE;Caridade;-4.232;-39.19;406.0;99.999;5.0
1099;PI;Caridade do Piauí;-7.753;-40.99;139.0;99.999;5.0
1100;BA;Carinhanha;-14.305;-43.77;453.0;99.999;5.0
1101;SE;Carira;-10.361;-37.7;0.0;99.999;5.0
1102;CE;Cariré;-3.951;-40.47;152.0;99.999;5.0
1103;TO;Cariri do Tocantins;-11.756;-49.13;289.0;99.999;5.0
1104;CE;Caririaçu;-7.042;-39.28;545.0;99.999;5.0
1105;CE;Cariús;-6.5;-39.5;257.0;99.999;5.0
1106;MT;Carlinda;-9.958;-55.75;0.0;99.999;5.0
1107;PR;Carlópolis;-23.425;-49.72;571.0;99.999;5.0
1108;RS;Carlos Barbosa;-29.298;-51.5;0.0;99.999;5.0
1109;MG;Carlos Chagas;-17.75;-40.77;265.0;99.999;5.0
1110;RS;Carlos Gomes;-27.752;-51.91;0.0;99.999;5.0
1111;MG;Carmésia;-19.089;-43.14;704.0;99.999;5.0
1112;RJ;Carmo;-21.934;-42.61;896.0;99.999;5.0
1113;MG;Carmo da Cachoeira;-21.461;-45.22;929.0;99.999;5.0
1114;MG;Carmo da Mata;-20.6;-44.76;1038.0;99.999;5.0
1115;MG;Carmo de Minas;-22.122;-45.13;788.0;99.999;5.0
1116;MG;Carmo do Cajuru;-20.184;-44.77;900.0;99.999;5.0
1117;MG;Carmo do Paranaíba;-19.001;-46.32;837.0;99.999;5.0
1118;MG;Carmo do Rio Claro;-20.972;-46.12;604.0;99.999;5.0
1119;GO;Carmo do Rio Verde;-15.354;-49.71;234.0;99.999;5.0
1120;TO;Carmolândia;-7.033;-48.4;896.0;99.999;5.0
1121;SE;Carmópolis;-10.648;-36.99;0.0;99.998;11.0
1122;MG;Carmópolis de Minas;-20.5;-44.64;319.0;99.999;5.0
1123;PE;Carnaíba;-7.755;-37.79;0.0;99.999;5.0
1124;RN;Carnaúba dos Dantas;-6.6;-36.6;0.0;99.999;5.0
1125;RN;Carnaubais;-5.348;-36.75;0.0;99.999;5.0
1126;CE;Carnaubal;-4.126;-40.94;806.0;99.999;5.0
1127;PE;Carnaubeira da Penha;-8.319;-38.74;799.0;99.999;5.0
1128;MG;Carneirinho;-19.698;-50.69;434.0;99.999;5.0
1129;AL;Carneiros;-9.483;-37.38;0.0;99.999;5.0
1130;RR;Caroebe;0.756;-59.7;0.0;99.999;5.0
1131;MA;Carolina;-7.333;-47.47;219.0;99.999;5.0
1132;PE;Carpina;-7.756;-35.25;0.0;99.998;11.0
1133;MG;Carrancas;-21.488;-44.64;1116.0;99.999;5.0
1134;PB;Carrapateira;-7.039;-38.34;0.0;99.999;5.0
1135;TO;Carrasco Bonito;-5.322;-48.03;147.0;99.999;5.0
1136;PE;Caruaru;-8.283;-35.98;0.0;99.999;5.0
1137;MA;Carutapera;-1.195;-46.02;18.0;99.998;11.0
1138;MG;Carvalhópolis;-21.758;-45.75;835.0;99.999;5.0
1139;MG;Carvalhos;-22.001;-44.46;1195.0;99.999;5.0
1140;SP;Casa Branca;-21.757;-47.09;709.0;99.999;5.0
1141;MG;Casa Grande;-20.759;-43.93;970.0;99.999;5.0
1142;BA;Casa Nova;-9.125;-40.97;436.0;99.999;5.0
1143;RS;Casca;-28.6;-51.98;702.0;99.999;5.0
1144;MG;Cascalho Rico;-18.6;-47.76;0.0;99.999;5.0
1145;CE;Cascavel;-4.133;-38.24;0.0;99.998;11.0
1146;PR;Cascavel;-24.956;-53.46;726.0;99.999;5.0
1147;TO;Caseara;-9.278;-49.96;187.0;99.999;5.0
1148;RS;Caseiros;-28.269;-51.69;0.0;99.999;5.0
1149;RJ;Casimiro de Abreu;-22.481;-42.25;19.0;99.998;11.0
1150;PE;Casinhas;-7.754;-35.72;0.0;99.999;5.0
1151;PB;Casserengue;-6.755;-35.72;0.0;99.999;5.0
1152;MG;Cássia;-20.6;-46.92;926.0;99.999;5.0
1153;SP;Cássia dos Coqueiros;-21.283;-47.13;733.0;99.999;5.0
1154;MS;Cassilândia;-19.113;-51.73;594.0;99.999;5.0
1155;PA;Castanhal;-1.294;-47.93;56.0;99.998;11.0
1156;MT;Castanheira;-11.133;-58.6;0.0;99.999;5.0
1157;RO;Castanheiras;-11.418;-61.94;0.0;99.999;5.0
1158;GO;Castelândia;-18.089;-50.22;526.0;99.999;5.0
1159;ES;Castelo;-20.604;-41.18;260.0;99.998;11.0
1160;PI;Castelo do Piauí;-5.322;-41.6;272.0;99.999;5.0
1161;SP;Castilho;-20.756;-51.49;327.0;99.999;5.0
1162;PR;Castro;-24.759;-50.01;201.0;99.999;5.0
1163;BA;Castro Alves;-12.757;-39.43;996.0;99.999;5.0
1164;MG;Cataguases;-21.389;-42.7;225.0;99.999;5.0
1165;GO;Catalão;-18.126;-47.95;766.0;99.999;5.0
1166;SP;Catanduva;-21.138;-48.97;517.0;99.999;5.0
1167;PR;Catanduvas;-25.253;-53.16;556.0;99.999;5.0
1168;SC;Catanduvas;-27.071;-51.66;0.0;99.999;5.0
1169;CE;Catarina;-6.131;-39.76;423.0;99.999;5.0
1170;MG;Catas Altas;-20.075;-43.41;809.0;99.999;5.0
1171;MG;Catas Altas da Noruega;-20.69;-43.5;754.0;99.999;5.0
1172;PE;Catende;-8.667;-35.72;0.0;99.998;11.0
1173;SP;Catiguá;-21.049;-49.06;499.0;99.999;5.0
1174;PB;Catingueira;-7.126;-37.61;0.0;99.999;5.0
1175;BA;Catolândia;-12.318;-44.76;732.0;99.999;5.0
1176;PB;Catolé do Rocha;-6.344;-37.75;0.0;99.999;5.0
1177;BA;Catu;-12.353;-38.38;0.0;99.998;11.0
1178;RS;Catuípe;-28.25;-54.01;0.0;99.999;5.0
1179;MG;Catuji;-17.299;-41.5;644.0;99.999;5.0
1180;CE;Catunda;-4.648;-40.25;282.0;99.999;5.0
1181;GO;Caturaí;-16.447;-49.49;749.0;99.999;5.0
1182;BA;Caturama;-13.329;-42.29;583.0;99.999;5.0
1183;PB;Caturité;-7.42;-36.03;0.0;99.999;5.0
1184;MG;Catuti;-15.358;-42.96;501.0;99.999;5.0
1185;CE;Caucaia;-3.754;-38.65;72.0;99.998;11.0
1186;GO;Cavalcante;-13.76;-47.46;908.0;99.999;5.0
1187;MG;Caxambu;-21.977;-44.93;0.0;99.999;5.0
1188;SC;Caxambu do Sul;-27.125;-52.76;924.0;99.999;5.0
1189;MA;Caxias;-4.756;-43.36;0.0;99.999;5.0
1190;RS;Caxias do Sul;-29.126;-51.18;115.0;99.999;5.0
1191;PI;Caxingó;-3.418;-41.76;51.0;99.999;5.0
1192;RN;Ceará-Mirim;-5.634;-35.43;0.0;99.998;11.0
1193;MA;Cedral;-2.0;-44.5;40.0;99.998;11.0
1194;SP;Cedral;-20.903;-49.27;565.0;99.999;5.0
1195;CE;Cedro;-6.607;-39.06;0.0;99.999;5.0
1196;PE;Cedro;-7.752;-39.24;831.0;99.999;5.0
1197;SE;Cedro de São João;-10.252;-36.76;241.0;99.998;11.0
1198;MG;Cedro do Abaeté;-19.148;-45.71;539.0;99.999;5.0
1199;SC;Celso Ramos;-27.634;-51.34;0.0;99.999;5.0
1200;RS;Centenário;-27.756;-52.0;379.0;99.999;5.0
1201;TO;Centenário;-8.951;-47.34;0.0;99.999;5.0
1202;PR;Centenário do Sul;-22.755;-51.6;243.0;99.999;5.0
1203;BA;Central;-11.136;-42.11;363.0;99.999;5.0
1204;MG;Central de Minas;-18.756;-41.31;42.0;99.999;5.0
1205;MA;Central do Maranhão;-2.199;-44.75;694.0;99.998;11.0
1206;MG;Centralina;-18.6;-49.2;607.0;99.999;5.0
1207;MA;Centro do Guilherme;-2.369;-46.0;74.0;99.999;5.0
1208;MA;Centro Novo do Maranhão;-2.107;-46.13;96.0;99.999;5.0
1209;RO;Cerejeiras;-13.189;-60.75;0.0;99.999;5.0
1210;GO;Ceres;-15.308;-49.6;711.0;99.999;5.0
1211;SP;Cerqueira César;-23.036;-49.13;749.0;99.999;5.0
1212;SP;Cerquilho;-23.126;-47.74;563.0;99.999;5.0
1213;RS;Cerrito;-31.756;-52.75;0.0;99.999;5.0
1214;PR;Cerro Azul;-24.755;-49.26;413.0;99.999;5.0
1215;RS;Cerro Branco;-29.654;-52.93;0.0;99.999;5.0
1216;RN;Cerro Corá;-6.046;-36.35;0.0;99.999;5.0
1217;RS;Cerro Grande;-27.606;-53.13;0.0;99.999;5.0
1218;RS;Cerro Grande do Sul;-30.6;-51.75;0.0;99.999;5.0
1219;RS;Cerro Largo;-28.149;-54.74;0.0;99.999;5.0
1220;SC;Cerro Negro;-27.76;-50.76;0.0;99.999;5.0
1221;SP;Cesário Lange;-23.227;-47.95;607.0;99.999;5.0
1222;PR;Céu Azul;-25.147;-53.75;451.0;99.999;5.0
1223;GO;Cezarina;-16.972;-49.78;583.0;99.999;5.0
1224;PE;Chã de Alegria;-8.001;-35.21;0.0;99.998;11.0
1225;PE;Chã Grande;-8.238;-35.46;0.0;99.998;11.0
1226;AL;Chã Preta;-9.255;-36.3;0.0;99.998;11.0
1227;MG;Chácara;-21.672;-43.22;812.0;99.999;5.0
1228;MG;Chalé;-20.044;-41.69;605.0;99.999;5.0
1229;RS;Chapada;-28.055;-53.07;314.0;99.999;5.0
1230;TO;Chapada da Natividade;-11.617;-47.75;222.0;99.999;5.0
1231;TO;Chapada de Areia;-10.144;-49.14;705.0;99.999;5.0
1232;MG;Chapada do Norte;-17.087;-42.5;0.0;99.999;5.0
1233;MT;Chapada dos Guimarães;-15.461;-55.75;693.0;99.999;5.0
1234;MG;Chapada Gaúcha;-15.306;-45.62;839.0;99.999;5.0
1235;GO;Chapadão do Céu;-18.408;-52.5;0.0;99.999;5.0
1236;SC;Chapadão do Lageado;-27.6;-49.6;690.0;99.999;5.0
1237;MS;Chapadão do Sul;-18.759;-52.62;0.0;99.999;5.0
1238;MA;Chapadinha;-3.754;-43.36;73.0;99.998;11.0
1239;SC;Chapecó;-27.096;-52.62;0.0;99.999;5.0
1240;SP;Charqueada;-22.5;-47.78;571.0;99.999;5.0
1241;RS;Charqueadas;-29.955;-51.63;0.0;99.999;5.0
1242;RS;Charrua;-27.952;-52.02;0.0;99.999;5.0
1243;CE;Chaval;-3.034;-41.24;25.0;99.999;5.0
1244;SP;Chavantes;-23.039;-49.71;488.0;99.999;5.0
1245;PA;Chaves;-0.125;-49.99;0.0;99.998;11.0
1246;MG;Chiador;-22.003;-43.06;293.0;99.999;5.0
1247;RS;Chiapeta;-27.923;-53.94;0.0;99.999;5.0
1248;PR;Chopinzinho;-25.756;-52.5;634.0;99.999;5.0
1249;CE;Choró;-4.755;-39.14;366.0;99.999;5.0
1250;CE;Chorozinho;-4.3;-38.5;0.0;99.998;11.0
1251;BA;Chorrochó;-8.98;-39.1;432.0;99.999;5.0
1252;RS;Chuí;-33.691;-53.46;0.0;99.999;5.0
1253;RO;Chupinguaia;-12.6;-60.76;0.0;99.999;5.0
1254;RS;Chuvisca;-30.756;-51.98;0.0;99.999;5.0
1255;PR;Cianorte;-23.663;-52.61;531.0;99.999;5.0
1256;BA;Cícero Dantas;-10.6;-38.38;0.0;99.999;5.0
1257;PR;Cidade Gaúcha;-23.38;-52.94;386.0;99.999;5.0
1258;GO;Cidade Ocidental;-16.077;-47.93;875.0;99.999;5.0
1259;MA;Cidelândia;-5.174;-47.78;259.0;99.999;5.0
1260;RS;Cidreira;-30.181;-50.26;0.0;99.999;5.0
1261;BA;Cipó;-11.1;-38.5;162.0;99.999;5.0
1262;MG;Cipotânea;-20.905;-43.37;692.0;99.999;5.0
1263;RS;Ciríaco;-28.344;-51.76;0.0;99.999;5.0
1264;MG;Claraval;-20.399;-47.27;865.0;99.999;5.0
1265;MG;Claro dos Poções;-17.08;-44.26;630.0;99.999;5.0
1266;MT;Cláudia;-11.5;-54.76;0.0;99.999;5.0
1267;MG;Cláudio;-20.443;-44.77;841.0;99.999;5.0
1268;SP;Clementina;-21.6;-50.45;439.0;99.999;5.0
1269;PR;Clevelândia;-26.396;-52.47;893.0;99.999;5.0
1270;BA;Coaraci;-14.641;-39.6;578.0;99.998;11.0
1271;AM;Coari;-4.085;-63.14;0.0;99.999;5.0
1272;PI;Cocal;-3.472;-41.6;139.0;99.999;5.0
1273;PI;Cocal de Telha;-4.6;-41.97;0.0;99.999;5.0
1274;SC;Cocal do Sul;-28.601;-49.33;233.0;99.999;5.0
1275;PI;Cocal dos Alves;-3.753;-41.45;231.0;99.999;5.0
1276;MT;Cocalinho;-14.397;-51.0;149.0;99.999;5.0
1277;GO;Cocalzinho de Goiás;-15.759;-48.78;763.0;99.999;5.0
1278;BA;Cocos;-14.184;-44.5;729.0;99.999;5.0
1279;AM;Codajás;-3.755;-62.06;0.0;99.999;5.0
1280;MA;Codó;-4.455;-43.76;79.0;99.999;5.0
1281;MA;Coelho Neto;-4.257;-43.01;112.0;99.998;11.0
1282;MG;Coimbra;-20.756;-42.75;710.0;99.999;5.0
1283;AL;Coité do Nóia;-9.632;-36.6;0.0;99.999;5.0
1284;PI;Coivaras;-5.089;-42.25;210.0;99.999;5.0
1285;PA;Colares;-0.937;-48.28;0.0;99.998;11.0
1286;ES;Colatina;-19.5;-40.63;228.0;99.998;11.0
1287;MT;Colíder;-10.755;-55.45;0.0;99.999;5.0
1288;SP;Colina;-20.751;-48.5;500.0;99.999;5.0
1289;MA;Colinas;-6.026;-44.25;286.0;99.999;5.0
1290;RS;Colinas;-29.388;-51.76;182.0;99.999;5.0
1291;GO;Colinas do Sul;-14.151;-48.08;573.0;99.999;5.0
1292;TO;Colinas do Tocantins;-8.059;-48.48;0.0;99.999;5.0
1293;TO;Colméia;-8.753;-48.76;283.0;99.999;5.0
1294;SP;Colômbia;-20.176;-48.69;539.0;99.999;5.0
1295;PR;Colombo;-25.292;-49.22;934.0;99.999;5.0
1296;PI;Colônia do Gurguéia;-8.182;-43.79;328.0;99.999;5.0
1297;PI;Colônia do Piauí;-7.231;-42.18;215.0;99.999;5.0
1298;AL;Colônia Leopoldina;-8.909;-35.73;0.0;99.998;11.0
1299;PR;Colorado;-22.755;-51.97;0.0;99.999;5.0
1300;RS;Colorado;-28.5;-52.99;443.0;99.999;5.0
1301;RO;Colorado do Oeste;-13.117;-60.5;0.0;99.999;5.0
1302;MG;Coluna;-18.234;-42.75;669.0;99.999;5.0
1303;TO;Combinado;-12.759;-46.5;450.0;99.999;5.0
1304;MG;Comendador Gomes;-19.698;-49.08;587.0;99.999;5.0
1305;RJ;Comendador Levy Gasparian;-22.029;-43.26;424.0;99.999;5.0
1306;MG;Comercinho;-16.296;-41.79;667.0;99.999;5.0
1307;MT;Comodoro;-13.663;-59.79;0.0;99.999;5.0
1308;PB;Conceição;-7.6;-38.5;890.0;99.999;5.0
1309;MG;Conceição da Aparecida;-21.094;-46.25;869.0;99.999;5.0
1310;ES;Conceição da Barra;-18.6;-39.73;49.0;99.998;11.0
1311;MG;Conceição da Barra de Minas;-21.129;-44.47;225.0;99.999;5.0
1312;BA;Conceição da Feira;-12.5;-39.0;520.0;99.998;11.0
1313;MG;Conceição das Alagoas;-19.915;-48.39;1157.0;99.999;5.0
1314;MG;Conceição das Pedras;-22.125;-45.45;403.0;99.999;5.0
1315;MG;Conceição de Ipanema;-19.928;-41.69;42.0;99.999;5.0
1316;RJ;Conceição de Macabu;-22.085;-41.76;138.0;99.998;11.0
1317;BA;Conceição do Almeida;-12.758;-39.17;177.0;99.998;11.0
1318;PA;Conceição do Araguaia;-8.258;-49.26;248.0;99.999;5.0
1319;PI;Conceição do Canindé;-7.756;-41.6;727.0;99.999;5.0
1320;ES;Conceição do Castelo;-20.368;-41.24;390.0;99.999;5.0
1321;BA;Conceição do Coité;-11.6;-39.28;210.0;99.999;5.0
1322;BA;Conceição do Jacuípe;-12.317;-38.77;15.0;99.998;11.0
1323;MA;Conceição do Lago-Açu;-3.755;-44.76;730.0;99.999;5.0
1324;MG;Conceição do Mato Dentro;-19.037;-43.43;673.0;99.999;5.0
1325;MG;Conceição do Pará;-19.755;-44.76;893.0;99.999;5.0
1326;MG;Conceição do Rio Verde;-21.756;-45.09;356.0;99.999;5.0
1327;TO;Conceição do Tocantins;-12.219;-47.3;839.0;99.999;5.0
1328;MG;Conceição dos Ouros;-22.413;-45.8;470.0;99.999;5.0
1329;SP;Conchal;-22.33;-47.17;660.0;99.999;5.0
1330;SP;Conchas;-23.015;-48.01;475.0;99.999;5.0
1331;SC;Concórdia;-27.234;-52.03;41.0;99.999;5.0
1332;PA;Concórdia do Pará;-2.002;-47.95;0.0;99.999;5.0
1333;PB;Condado;-6.91;-37.6;0.0;99.999;5.0
1334;PE;Condado;-7.6;-35.11;0.0;99.998;11.0
1335;BA;Conde;-11.755;-37.61;0.0;99.998;11.0
1336;PB;Conde;-7.26;-34.91;0.0;99.997;16.0
1337;BA;Condeúba;-14.756;-41.97;745.0;99.999;5.0
1338;RS;Condor;-28.258;-53.49;0.0;99.999;5.0
1339;MG;Cônego Marinho;-15.294;-44.42;801.0;99.999;5.0
1340;MG;Confins;-19.633;-43.98;738.0;99.999;5.0
1341;MT;Confresa;-10.644;-51.6;327.0;99.999;5.0
1342;PB;Congo;-7.76;-36.66;862.0;99.999;5.0
1343;MG;Congonhal;-22.153;-46.04;1059.0;99.999;5.0
1344;MG;Congonhas;-20.5;-43.76;983.0;99.999;5.0
1345;MG;Congonhas do Norte;-18.755;-43.68;741.0;99.999;5.0
1346;PR;Congonhinhas;-23.6;-50.6;0.0;99.999;5.0
1347;MG;Conquista;-19.937;-47.5;777.0;99.999;5.0
1348;MG;Conselheiro Lafaiete;-20.66;-43.79;1009.0;99.999;5.0
1349;PR;Conselheiro Mairinck;-23.63;-50.13;472.0;99.999;5.0
1350;MG;Conselheiro Pena;-19.172;-41.47;112.0;99.999;5.0
1351;MG;Consolação;-22.6;-45.92;1021.0;99.999;5.0
1352;RS;Constantina;-27.753;-52.99;0.0;99.999;5.0
1353;MG;Contagem;-19.932;-44.05;866.0;99.999;5.0
1354;PR;Contenda;-25.676;-49.5;933.0;99.999;5.0
1355;BA;Contendas do Sincorá;-13.756;-41.04;344.0;99.999;5.0
1356;MG;Coqueiral;-21.189;-45.44;831.0;99.999;5.0
1357;AL;Coqueiro Seco;-9.638;-35.75;0.0;99.998;11.0
1358;RS;Coqueiros do Sul;-28.119;-52.78;0.0;99.999;5.0
1359;MG;Coração de Jesus;-16.685;-44.37;802.0;99.999;5.0
1360;BA;Coração de Maria;-12.233;-38.75;248.0;99.998;11.0
1361;PR;Corbélia;-24.76;-53.31;527.0;99.999;5.0
1362;RJ;Cordeiro;-22.029;-42.36;684.0;99.998;11.0
1363;SP;Cordeirópolis;-22.482;-47.46;543.0;99.999;5.0
1364;BA;Cordeiros;-15.039;-41.93;776.0;99.999;5.0
1365;SC;Cordilheira Alta;-26.984;-52.6;0.0;99.999;5.0
1366;MG;Cordisburgo;-19.125;-44.32;696.0;99.999;5.0
1367;MG;Cordislândia;-21.759;-45.7;852.0;99.999;5.0
1368;CE;Coreaú;-3.5;-40.66;159.0;99.999;5.0
1369;PB;Coremas;-7.014;-37.95;0.0;99.999;5.0
1370;MS;Corguinho;-19.755;-54.75;0.0;99.999;5.0
1371;BA;Coribe;-13.755;-44.45;698.0;99.999;5.0
1372;MG;Corinto;-18.381;-44.46;590.0;99.999;5.0
1373;PR;Cornélio Procópio;-23.181;-50.65;576.0;99.999;5.0
1374;MG;Coroaci;-18.622;-42.29;519.0;99.999;5.0
1375;SP;Coroados;-21.352;-50.28;405.0;99.999;5.0
1376;MA;Coroatá;-4.13;-44.12;35.0;99.999;5.0
1377;MG;Coromandel;-18.473;-47.25;818.0;99.999;5.0
1378;RS;Coronel Barros;-28.383;-54.07;0.0;99.999;5.0
1379;RS;Coronel Bicaco;-27.752;-53.7;0.0;99.999;5.0
1380;PR;Coronel Domingos Soares;-26.228;-52.03;965.0;99.999;5.0
1381;RN;Coronel Ezequiel;-6.383;-36.21;0.0;99.999;5.0
1382;MG;Coronel Fabriciano;-19.5;-42.63;861.0;99.999;5.0
1383;SC;Coronel Freitas;-26.909;-52.7;0.0;99.999;5.0
1384;RN;Coronel João Pessoa;-6.26;-38.44;0.0;99.999;5.0
1385;BA;Coronel João Sá;-10.284;-37.93;0.0;99.999;5.0
1386;PI;Coronel José Dias;-8.755;-42.5;318.0;99.999;5.0
1387;SP;Coronel Macedo;-23.631;-49.31;627.0;99.999;5.0
1388;SC;Coronel Martins;-26.5;-52.67;652.0;99.999;5.0
1389;MG;Coronel Murta;-16.619;-42.18;374.0;99.999;5.0
1390;MG;Coronel Pacheco;-21.6;-43.27;590.0;99.999;5.0
1391;MS;Coronel Sapucaia;-23.272;-55.5;0.0;99.999;5.0
1392;PR;Coronel Vivida;-25.98;-52.6;717.0;99.999;5.0
1393;MG;Coronel Xavier Chaves;-21.024;-44.22;998.0;99.999;5.0
1394;MG;Córrego Danta;-19.755;-45.9;840.0;99.999;5.0
1395;MG;Córrego do Bom Jesus;-22.63;-46.02;1079.0;99.999;5.0
1396;GO;Córrego do Ouro;-16.294;-50.5;834.0;99.999;5.0
1397;MG;Córrego Fundo;-20.449;-45.6;804.0;99.999;5.0
1398;MG;Córrego Novo;-19.755;-42.4;299.0;99.999;5.0
1399;SC;Correia Pinto;-27.6;-50.36;0.0;99.999;5.0
1400;PI;Corrente;-10.443;-45.13;477.0;99.999;5.0
1401;PE;Correntes;-9.129;-36.33;0.0;99.998;11.0
1402;BA;Correntina;-13.343;-44.64;780.0;99.999;5.0
1403;PE;Cortês;-8.47;-35.5;0.0;99.998;11.0
1404;MS;Corumbá;-19.009;-57.65;1079.0;99.999;5.0
1405;GO;Corumbá de Goiás;-15.924;-48.75;746.0;99.999;5.0
1406;GO;Corumbaíba;-18.143;-48.6;0.0;99.999;5.0
1407;SP;Corumbataí;-22.22;-47.63;524.0;99.999;5.0
1408;PR;Corumbataí do Sul;-24.101;-52.12;579.0;99.999;5.0
1409;RO;Corumbiara;-12.962;-60.76;0.0;99.999;5.0
1410;SC;Corupá;-26.425;-49.24;272.0;99.999;5.0
1411;AL;Coruripe;-10.126;-36.18;0.0;99.998;11.0
1412;SP;Cosmópolis;-22.646;-47.2;588.0;99.999;5.0
1413;SP;Cosmorama;-20.478;-49.78;524.0;99.999;5.0
1414;RO;Costa Marques;-12.445;-64.23;0.0;99.999;5.0
1415;MS;Costa Rica;-18.5;-53.13;668.0;99.999;5.0
1416;BA;Cotegipe;-12.028;-44.26;434.0;99.999;5.0
1417;SP;Cotia;-23.604;-46.92;899.0;99.999;5.0
1418;RS;Cotiporã;-28.994;-51.7;0.0;99.999;5.0
1419;MT;Cotriguaçu;-9.958;-58.41;0.0;99.999;5.0
1420;TO;Couto de Magalhães;-8.284;-49.25;781.0;99.999;5.0
1421;MG;Couto de Magalhães de Minas;-18.071;-43.47;0.0;99.999;5.0
1422;RS;Coxilha;-28.127;-52.3;0.0;99.999;5.0
1423;MS;Coxim;-18.5;-54.76;0.0;99.999;5.0
1424;PB;Coxixola;-7.627;-36.61;0.0;99.999;5.0
1425;AL;Craíbas;-9.618;-36.77;0.0;99.999;5.0
1426;CE;Crateús;-5.178;-40.68;290.0;99.999;5.0
1427;CE;Crato;-7.234;-39.41;930.0;99.999;5.0
1428;SP;Cravinhos;-21.34;-47.73;791.0;99.999;5.0
1429;BA;Cravolândia;-13.359;-39.75;664.0;99.999;5.0
1430;SC;Criciúma;-28.678;-49.37;0.0;99.999;5.0
1431;MG;Crisólita;-17.237;-40.91;265.0;99.999;5.0
1432;BA;Crisópolis;-11.5;-38.15;0.0;99.998;11.0
1433;RS;Crissiumal;-27.5;-54.1;0.0;99.999;5.0
1434;MG;Cristais;-20.756;-45.5;826.0;99.999;5.0
1435;SP;Cristais Paulista;-20.397;-47.42;770.0;99.999;5.0
1436;RS;Cristal;-31.0;-52.05;0.0;99.999;5.0
1437;RS;Cristal do Sul;-27.454;-53.25;460.0;99.999;5.0
1438;TO;Cristalândia;-10.6;-49.19;234.0;99.999;5.0
1439;PI;Cristalândia do Piauí;-10.653;-45.19;610.0;99.999;5.0
1440;MG;Cristália;-16.755;-42.76;1004.0;99.999;5.0
1441;GO;Cristalina;-16.757;-47.61;0.0;99.999;5.0
1442;MG;Cristiano Otoni;-20.755;-43.75;1048.0;99.999;5.0
1443;GO;Cristianópolis;-17.199;-48.71;853.0;99.999;5.0
1444;MG;Cristina;-22.212;-45.26;1327.0;99.999;5.0
1445;SE;Cristinápolis;-11.476;-37.76;0.0;99.998;11.0
1446;PI;Cristino Castro;-8.755;-44.22;322.0;99.999;5.0
1447;BA;Cristópolis;-12.234;-44.42;749.0;99.999;5.0
1448;GO;Crixás;-14.5;-49.97;259.0;99.999;5.0
1449;TO;Crixás do Tocantins;-11.1;-48.92;588.0;99.999;5.0
1450;CE;Croatá;-4.4;-40.91;577.0;99.999;5.0
1451;GO;Cromínia;-17.287;-49.38;744.0;99.999;5.0
1452;MG;Crucilândia;-20.384;-44.34;984.0;99.999;5.0
1453;CE;Cruz;-2.918;-40.17;0.0;99.998;11.0
1454;RS;Cruz Alta;-28.639;-53.61;199.0;99.999;5.0
1455;BA;Cruz das Almas;-12.67;-39.1;0.0;99.998;11.0
1456;PB;Cruz do Espírito Santo;-7.14;-35.09;1059.0;99.998;11.0
1457;PR;Cruz Machado;-26.018;-51.35;388.0;99.999;5.0
1458;SP;Cruzália;-22.754;-50.79;23.0;99.999;5.0
1459;SP;Cruzeiro;-22.6;-44.96;898.0;99.999;5.0
1460;MG;Cruzeiro da Fortaleza;-18.946;-46.67;450.0;99.999;5.0
1461;PR;Cruzeiro do Iguaçu;-25.616;-53.13;392.0;99.999;5.0
1462;PR;Cruzeiro do Oeste;-23.759;-53.07;0.0;99.999;5.0
1463;AC;Cruzeiro do Sul;-7.631;-72.67;466.0;99.999;5.0
1464;PR;Cruzeiro do Sul;-22.962;-52.13;0.0;99.999;5.0
1465;RS;Cruzeiro do Sul;-29.5;-51.99;571.0;99.999;5.0
1466;RN;Cruzeta;-6.412;-36.79;0.0;99.999;5.0
1467;MG;Cruzília;-21.755;-44.75;1024.0;99.999;5.0
1468;PR;Cruzmaltina;-24.013;-51.46;540.0;99.999;5.0
1469;SP;Cubatão;-23.756;-46.43;74.0;99.999;5.0
1470;PB;Cubati;-6.756;-36.38;0.0;99.999;5.0
1471;MT;Cuiabá;-15.6;-56.1;0.0;99.999;5.0
1472;PB;Cuité;-6.484;-36.15;0.0;99.999;5.0
1473;PB;Cuité de Mamanguape;-6.915;-35.25;0.0;99.998;11.0
1474;PB;Cuitegi;-6.756;-35.5;0.0;99.998;11.0
1475;RO;Cujubim;-9.363;-62.6;0.0;99.999;5.0
1476;GO;Cumari;-18.263;-48.15;659.0;99.999;5.0
1477;PE;Cumaru;-8.006;-35.7;317.0;99.999;5.0
1478;PA;Cumaru do Norte;-7.755;-50.77;0.0;99.999;5.0
1479;SE;Cumbe;-10.355;-37.18;0.0;99.998;11.0
1480;SP;Cunha;-23.074;-44.96;0.0;99.999;5.0
1481;SC;Cunha Porã;-26.756;-53.13;880.0;99.999;5.0
1482;SC;Cunhataí;-26.969;-53.09;0.0;99.999;5.0
1483;MG;Cuparaque;-18.969;-41.1;183.0;99.999;5.0
1484;PE;Cupira;-8.617;-35.95;0.0;99.999;5.0
1485;BA;Curaçá;-8.99;-39.91;462.0;99.999;5.0
1486;PI;Curimatá;-10.036;-44.31;460.0;99.999;5.0
1487;PA;Curionópolis;-6.102;-49.6;236.0;99.999;5.0
1488;PR;Curitiba;-25.428;-49.27;0.0;99.999;5.0
1489;SC;Curitibanos;-27.283;-50.6;929.0;99.999;5.0
1490;PR;Curiúva;-24.033;-50.46;752.0;99.999;5.0
1491;PI;Currais;-9.007;-44.41;0.0;99.999;5.0
1492;RN;Currais Novos;-6.261;-36.5;603.0;99.999;5.0
1493;PB;Curral de Cima;-6.752;-35.27;0.0;99.998;11.0
1494;MG;Curral de Dentro;-15.938;-41.75;925.0;99.999;5.0
1495;PI;Curral Novo do Piauí;-7.755;-40.9;414.0;99.999;5.0
1496;PB;Curral Velho;-7.6;-38.2;0.0;99.999;5.0
1497;PA;Curralinho;-1.755;-49.8;7.0;99.999;5.0
1498;PI;Curralinhos;-5.6;-42.78;156.0;99.999;5.0
1499;PA;Curuá;-1.756;-55.12;0.0;99.999;5.0
1500;PA;Curuçá;-0.753;-47.75;29.0;99.998;11.0
1501;MA;Cururupu;-1.755;-44.76;11.0;99.998;11.0
1502;MG;Curvelo;-18.756;-44.43;648.0;99.999;5.0
1503;PE;Custódia;-8.088;-37.64;0.0;99.999;5.0
1504;AP;Cutias;0.986;-50.75;4.0;99.999;5.0
1505;GO;Damianópolis;-14.6;-46.18;734.0;99.999;5.0
1506;PB;Damião;-6.603;-35.94;0.0;99.999;5.0
1507;GO;Damolândia;-16.253;-49.37;900.0;99.999;5.0
1508;TO;Darcinópolis;-6.751;-47.76;361.0;99.999;5.0
1509;BA;Dário Meira;-14.436;-39.91;357.0;99.999;5.0
1510;MG;Datas;-18.446;-43.66;1281.0;99.999;5.0
1511;RS;David Canabarro;-28.388;-51.75;0.0;99.999;5.0
1512;GO;Davinópolis;-18.153;-47.6;852.0;99.999;5.0
1513;MA;Davinópolis;-5.6;-47.43;211.0;99.999;5.0
1514;MG;Delfim Moreira;-22.5;-45.28;1197.0;99.999;5.0
1515;MG;Delfinópolis;-20.344;-46.76;890.0;99.999;5.0
1516;AL;Delmiro Gouveia;-9.389;-38.0;0.0;99.999;5.0
1517;MG;Delta;-19.977;-47.77;621.0;99.999;5.0
1518;PI;Demerval Lobão;-5.358;-42.68;113.0;99.999;5.0
1519;MT;Denise;-14.754;-57.05;0.0;99.999;5.0
1520;MS;Deodápolis;-22.276;-54.13;319.0;99.999;5.0
1521;CE;Deputado Irapuan Pinheiro;-5.917;-39.27;260.0;99.999;5.0
1522;RS;Derrubadas;-27.265;-53.76;0.0;99.999;5.0
1523;SP;Descalvado;-21.904;-47.62;714.0;99.999;5.0
1524;SC;Descanso;-26.755;-53.5;0.0;99.999;5.0
1525;MG;Descoberto;-21.46;-42.97;347.0;99.999;5.0
1526;PB;Desterro;-7.291;-37.09;1129.0;99.999;5.0
1527;MG;Desterro de Entre Rios;-20.66;-44.33;765.0;99.999;5.0
1528;MG;Desterro do Melo;-21.147;-43.5;0.0;99.999;5.0
1529;RS;Dezesseis de Novembro;-28.225;-55.05;0.0;99.999;5.0
1530;SP;Diadema;-23.686;-46.62;786.0;99.999;5.0
1531;PB;Diamante;-7.428;-38.26;354.0;99.999;5.0
1532;PR;Diamante do Norte;-22.656;-52.76;592.0;99.999;5.0
1533;PR;Diamante do Sul;-25.043;-52.68;400.0;99.999;5.0
1534;PR;Diamante d'Oeste;-24.943;-54.1;0.0;99.999;5.0
1535;MG;Diamantina;-18.249;-43.6;986.0;99.999;5.0
1536;MT;Diamantino;-14.409;-56.45;0.0;99.999;5.0
1537;TO;Dianópolis;-11.628;-46.75;792.0;99.999;5.0
1538;BA;Dias d'Ávila;-12.613;-38.3;0.0;99.998;11.0
1539;RS;Dilermano de Aguiar;-29.751;-54.26;0.0;99.999;5.0
1540;MG;Diogo de Vasconcelos;-20.488;-43.2;684.0;99.999;5.0
1541;MG;Dionísio;-19.755;-42.78;747.0;99.999;5.0
1542;SC;Dionísio Cerqueira;-26.255;-53.64;347.0;99.999;5.0
1543;GO;Diorama;-16.234;-51.26;441.0;99.999;5.0
1544;SP;Dirce Reis;-20.466;-50.61;433.0;99.999;5.0
1545;PI;Dirceu Arcoverde;-9.338;-42.43;417.0;99.999;5.0
1546;SE;Divina Pastora;-10.689;-37.15;0.0;99.998;11.0
1547;MG;Divinésia;-20.99;-43.0;764.0;99.999;5.0
1548;MG;Divino;-20.614;-42.15;422.0;99.999;5.0
1549;MG;Divino das Laranjeiras;-18.758;-41.48;832.0;99.999;5.0
1550;ES;Divino de São Lourenço;-20.62;-41.69;916.0;99.999;5.0
1551;SP;Divinolândia;-21.661;-46.74;1149.0;99.999;5.0
1552;MG;Divinolândia de Minas;-18.755;-42.61;823.0;99.999;5.0
1553;MG;Divinópolis;-20.139;-44.76;573.0;99.999;5.0
1554;GO;Divinópolis de Goiás;-13.295;-46.39;222.0;99.999;5.0
1555;TO;Divinópolis do Tocantins;-9.76;-49.21;753.0;99.999;5.0
1556;MG;Divisa Alegre;-15.753;-41.35;900.0;99.999;5.0
1557;MG;Divisa Nova;-21.5;-46.2;839.0;99.999;5.0
1558;MG;Divisópolis;-15.753;-41.0;781.0;99.999;5.0
1559;SP;Dobrada;-21.5;-48.39;637.0;99.999;5.0
1560;SP;Dois Córregos;-22.366;-48.38;746.0;99.999;5.0
1561;RS;Dois Irmãos;-29.6;-51.09;0.0;99.999;5.0
1562;RS;Dois Irmãos das Missões;-27.659;-53.5;0.0;99.999;5.0
1563;MS;Dois Irmãos do Buriti;-20.68;-55.3;242.0;99.999;5.0
1564;TO;Dois Irmãos do Tocantins;-9.258;-49.06;0.0;99.999;5.0
1565;RS;Dois Lajeados;-28.984;-51.75;0.0;99.999;5.0
1566;AL;Dois Riachos;-9.393;-37.1;0.0;99.999;5.0
1567;PR;Dois Vizinhos;-25.753;-53.06;499.0;99.999;5.0
1568;SP;Dolcinópolis;-20.123;-50.5;440.0;99.999;5.0
1569;MT;Dom Aquino;-15.755;-54.92;0.0;99.999;5.0
1570;BA;Dom Basílio;-13.756;-41.77;444.0;99.999;5.0
1571;MG;Dom Bosco;-16.652;-46.27;584.0;99.999;5.0
1572;MG;Dom Cavati;-19.374;-42.11;461.0;99.999;5.0
1573;PA;Dom Eliseu;-4.285;-47.5;136.0;99.999;5.0
1574;PI;Dom Expedito Lopes;-6.959;-41.64;385.0;99.999;5.0
1575;RS;Dom Feliciano;-30.75;-52.11;0.0;99.999;5.0
1576;PI;Dom Inocêncio;-9.002;-41.97;395.0;99.999;5.0
1577;MG;Dom Joaquim;-18.967;-43.26;585.0;99.999;5.0
1578;BA;Dom Macedo Costa;-12.905;-39.19;151.0;99.998;11.0
1579;RS;Dom Pedrito;-30.983;-54.67;0.0;99.999;5.0
1580;MA;Dom Pedro;-5.033;-44.44;0.0;99.999;5.0
1581;RS;Dom Pedro de Alcântara;-29.369;-49.75;173.0;99.999;5.0
1582;MG;Dom Silvério;-20.125;-42.97;752.0;99.999;5.0
1583;MG;Dom Viçoso;-22.254;-45.13;898.0;99.999;5.0
1584;ES;Domingos Martins;-20.363;-40.66;784.0;99.998;11.0
1585;PI;Domingos Mourão;-4.254;-41.27;126.0;99.999;5.0
1586;SC;Dona Emma;-26.985;-49.73;0.0;99.999;5.0
1587;MG;Dona Euzébia;-21.316;-42.75;0.0;99.999;5.0
1588;RS;Dona Francisca;-29.622;-53.36;0.0;99.999;5.0
1589;PB;Dona Inês;-6.603;-35.29;0.0;99.998;11.0
1590;MG;Dores de Campos;-21.109;-44.02;1028.0;99.999;5.0
1591;MG;Dores de Guanhães;-19.058;-42.93;503.0;99.999;5.0
1592;MG;Dores do Indaiá;-19.463;-45.6;667.0;99.999;5.0
1593;ES;Dores do Rio Preto;-20.689;-41.75;792.0;99.999;5.0
1594;MG;Dores do Turvo;-20.976;-43.19;777.0;99.999;5.0
1595;MG;Doresópolis;-20.287;-45.9;712.0;99.999;5.0
1596;PE;Dormentes;-8.447;-40.77;495.0;99.999;5.0
1597;MS;Douradina;-22.04;-54.61;0.0;99.999;5.0
1598;PR;Douradina;-23.381;-53.29;371.0;99.999;5.0
1599;SP;Dourado;-22.1;-48.32;693.0;99.999;5.0
1600;MG;Douradoquara;-18.431;-47.61;0.0;99.999;5.0
1601;MS;Dourados;-22.221;-54.75;700.0;99.999;5.0
1602;PR;Doutor Camargo;-23.6;-52.22;359.0;99.999;5.0
1603;RS;Doutor Maurício Cardoso;-27.5;-54.36;0.0;99.999;5.0
1604;SC;Doutor Pedrinho;-26.751;-49.48;0.0;99.999;5.0
1605;RS;Doutor Ricardo;-29.086;-51.99;0.0;99.999;5.0
1606;RN;Doutor Severiano;-6.094;-38.37;0.0;99.999;5.0
1607;PR;Doutor Ulysses;-24.6;-49.42;721.0;99.999;5.0
1608;GO;Doverlândia;-16.752;-52.32;615.0;99.999;5.0
1609;SP;Dracena;-21.483;-51.5;342.0;99.999;5.0
1610;SP;Duartina;-22.414;-49.4;529.0;99.999;5.0
1611;RJ;Duas Barras;-22.051;-42.5;636.0;99.998;11.0
1612;PB;Duas Estradas;-6.685;-35.42;0.0;99.998;11.0
1613;TO;Dueré;-11.344;-49.27;235.0;99.999;5.0
1614;SP;Dumont;-21.236;-47.97;563.0;99.999;5.0
1615;MA;Duque Bacelar;-4.156;-42.94;118.0;99.998;11.0
1616;RJ;Duque de Caxias;-22.759;-43.31;14.0;99.998;11.0
1617;MG;Durandé;-20.253;-41.8;657.0;99.999;5.0
1618;SP;Echaporã;-22.429;-50.25;575.0;99.999;5.0
1619;ES;Ecoporanga;-18.373;-40.75;276.0;99.998;11.0
1620;GO;Edealina;-17.424;-49.66;595.0;99.999;5.0
1621;GO;Edéia;-17.338;-49.93;496.0;99.999;5.0
1622;AM;Eirunepé;-6.66;-69.76;0.0;99.999;5.0
1623;MS;Eldorado;-23.759;-54.28;0.0;99.999;5.0
1624;SP;Eldorado;-24.5;-48.11;0.0;99.999;5.0
1625;RS;Eldorado do Sul;-30.084;-51.62;281.0;99.999;5.0
1626;PA;Eldorado dos Carajás;-6.104;-49.36;71.0;99.999;5.0
1627;PI;Elesbão Veloso;-6.252;-42.14;221.0;99.999;5.0
1628;SP;Elias Fausto;-23.043;-47.37;587.0;99.999;5.0
1629;PI;Eliseu Martins;-8.097;-43.66;299.0;99.999;5.0
1630;SP;Elisiário;-21.126;-49.11;497.0;99.999;5.0
1631;BA;Elísio Medrado;-12.946;-39.5;377.0;99.999;5.0
1632;MG;Elói Mendes;-21.61;-45.6;836.0;99.999;5.0
1633;PB;Emas;-7.108;-37.72;0.0;99.999;5.0
1634;SP;Embaúba;-20.983;-48.75;551.0;99.999;5.0
1635;SP;Embu;-23.649;-46.76;778.0;99.999;5.0
1636;SP;Embu-Guaçu;-23.755;-46.75;0.0;99.999;5.0
1637;SP;Emilianópolis;-21.755;-51.48;366.0;99.999;5.0
1638;RS;Encantado;-29.236;-51.76;0.0;99.999;5.0
1639;RN;Encanto;-6.111;-38.31;0.0;99.999;5.0
1640;BA;Encruzilhada;-15.5;-40.91;0.0;99.999;5.0
1641;RS;Encruzilhada do Sul;-30.5;-52.5;848.0;99.999;5.0
1642;PR;Enéas Marques;-25.942;-53.13;631.0;99.999;5.0
1643;PR;Engenheiro Beltrão;-23.76;-52.27;356.0;99.999;5.0
1644;MG;Engenheiro Caldas;-19.219;-42.05;268.0;99.999;5.0
1645;SP;Engenheiro Coelho;-22.488;-47.22;634.0;99.999;5.0
1646;MG;Engenheiro Navarro;-17.28;-43.95;664.0;99.999;5.0
1647;RJ;Engenheiro Paulo de Frontin;-22.5;-43.68;566.0;99.999;5.0
1648;RS;Engenho Velho;-27.751;-52.91;0.0;99.999;5.0
1649;MG;Entre Folhas;-19.625;-42.23;671.0;99.999;5.0
1650;BA;Entre Rios;-11.942;-38.08;884.0;99.998;11.0
1651;SC;Entre Rios;-26.752;-52.6;241.0;99.999;5.0
1652;MG;Entre Rios de Minas;-20.671;-44.07;0.0;99.999;5.0
1653;PR;Entre Rios do Oeste;-24.75;-54.23;0.0;99.999;5.0
1654;RS;Entre Rios do Sul;-27.5;-52.73;0.0;99.999;5.0
1655;RS;Entre-Ijuís;-28.359;-54.27;0.0;99.999;5.0
1656;AM;Envira;-7.433;-70.02;0.0;99.999;5.0
1657;AC;Epitaciolândia;-11.029;-68.74;0.0;99.999;5.0
1658;RN;Equador;-6.945;-36.72;0.0;99.999;5.0
1659;RS;Erebango;-27.756;-52.3;0.0;99.999;5.0
1660;RS;Erechim;-27.634;-52.27;0.0;99.999;5.0
1661;CE;Ererê;-6.032;-38.35;0.0;99.999;5.0
1662;BA;Érico Cardoso;-13.418;-42.14;1204.0;99.999;5.0
1663;SC;Ermo;-28.983;-49.64;0.0;99.999;5.0
1664;RS;Ernestina;-28.499;-52.6;0.0;99.999;5.0
1665;RS;Erval Grande;-27.391;-52.6;0.0;99.999;5.0
1666;RS;Erval Seco;-27.5;-53.5;0.0;99.999;5.0
1667;SC;Erval Velho;-27.276;-51.44;0.0;99.999;5.0
1668;MG;Ervália;-20.755;-42.66;811.0;99.999;5.0
1669;PE;Escada;-8.359;-35.22;0.0;99.998;11.0
1670;RS;Esmeralda;-28.054;-51.19;0.0;99.999;5.0
1671;MG;Esmeraldas;-19.756;-44.31;759.0;99.999;5.0
1672;MG;Espera Feliz;-20.65;-41.91;927.0;99.999;5.0
1673;PB;Esperança;-7.033;-35.76;0.0;99.999;5.0
1674;RS;Esperança do Sul;-27.355;-53.99;385.0;99.999;5.0
1675;PR;Esperança Nova;-23.752;-53.75;0.0;99.999;5.0
1676;PI;Esperantina;-3.902;-42.23;111.0;99.998;11.0
1677;TO;Esperantina;-5.343;-48.5;102.0;99.999;5.0
1678;MA;Esperantinópolis;-4.756;-44.71;101.0;99.999;5.0
1679;PR;Espigão Alto do Iguaçu;-25.424;-52.75;621.0;99.999;5.0
1680;RO;Espigão d'Oeste;-11.5;-61.01;0.0;99.999;5.0
1681;MG;Espinosa;-14.926;-42.75;970.0;99.999;5.0
1682;RN;Espírito Santo;-6.332;-35.31;1289.0;99.998;11.0
1683;MG;Espírito Santo do Dourado;-22.046;-45.95;871.0;99.999;5.0
1684;SP;Espírito Santo do Pinhal;-22.116;-46.68;481.0;99.999;5.0
1685;SP;Espírito Santo do Turvo;-22.692;-49.43;0.0;99.999;5.0
1686;BA;Esplanada;-11.76;-37.95;0.0;99.998;11.0
1687;RS;Espumoso;-28.752;-52.75;0.0;99.999;5.0
1688;RS;Estação;-27.911;-52.26;0.0;99.999;5.0
1689;SE;Estância;-11.268;-37.44;0.0;99.998;11.0
1690;RS;Estância Velha;-29.648;-51.17;0.0;99.999;5.0
1691;RS;Esteio;-29.756;-51.18;0.0;99.999;5.0
1692;MG;Estiva;-22.463;-46.02;611.0;99.999;5.0
1693;SP;Estiva Gerbi;-22.271;-46.94;855.0;99.999;5.0
1694;MA;Estreito;-6.6;-47.45;252.0;99.999;5.0
1695;RS;Estrela;-29.5;-51.97;363.0;99.999;5.0
1696;MG;Estrela Dalva;-21.754;-42.46;0.0;99.999;5.0
1697;AL;Estrela de Alagoas;-9.39;-36.76;686.0;99.999;5.0
1698;MG;Estrela do Indaiá;-19.5;-45.79;430.0;99.999;5.0
1699;GO;Estrela do Norte;-13.756;-49.07;381.0;99.999;5.0
1700;SP;Estrela do Norte;-22.488;-51.66;784.0;99.999;5.0
1701;MG;Estrela do Sul;-18.755;-47.69;477.0;99.999;5.0
1702;SP;Estrela d'Oeste;-20.288;-50.4;0.0;99.999;5.0
1703;RS;Estrela Velha;-29.177;-53.16;0.0;99.999;5.0
1704;BA;Euclides da Cunha;-10.5;-39.02;361.0;99.999;5.0
1705;SP;Euclides da Cunha Paulista;-22.6;-52.6;380.0;99.999;5.0
1706;RS;Eugênio de Castro;-28.5;-54.15;0.0;99.999;5.0
1707;MG;Eugenópolis;-21.099;-42.19;336.0;99.999;5.0
1708;BA;Eunápolis;-16.378;-39.6;189.0;99.998;11.0
1709;CE;Eusébio;-3.756;-38.45;0.0;99.998;11.0
1710;MG;Ewbank da Câmara;-21.6;-43.5;760.0;99.999;5.0
1711;MG;Extrema;-22.756;-46.32;895.0;99.999;5.0
1712;RN;Extremoz;-5.751;-35.31;0.0;99.998;11.0
1713;PE;Exu;-7.5;-39.72;554.0;99.999;5.0
1714;PB;Fagundes;-7.355;-35.78;0.0;99.999;5.0
1715;RS;Fagundes Varela;-28.756;-51.7;0.0;99.999;5.0
1716;GO;Faina;-15.446;-50.36;356.0;99.999;5.0
1717;MG;Fama;-21.406;-45.75;811.0;99.999;5.0
1718;MG;Faria Lemos;-20.755;-42.03;404.0;99.999;5.0
1719;CE;Farias Brito;-6.931;-39.6;343.0;99.999;5.0
1720;PA;Faro;-2.171;-56.75;589.0;99.999;5.0
1721;PR;Farol;-24.1;-52.62;0.0;99.999;5.0
1722;RS;Farroupilha;-29.225;-51.35;0.0;99.999;5.0
1723;SP;Fartura;-23.388;-49.5;405.0;99.999;5.0
1724;PI;Fartura do Piauí;-9.014;-42.69;500.0;99.999;5.0
1725;BA;Fátima;-10.6;-38.22;318.0;99.999;5.0
1726;TO;Fátima;-10.756;-48.91;0.0;99.999;5.0
1727;MS;Fátima do Sul;-22.374;-54.5;304.0;99.999;5.0
1728;PR;Faxinal;-24.0;-51.32;0.0;99.999;5.0
1729;RS;Faxinal do Soturno;-29.6;-53.44;0.0;99.999;5.0
1730;SC;Faxinal dos Guedes;-26.756;-52.26;837.0;99.999;5.0
1731;RS;Faxinalzinho;-27.424;-52.67;0.0;99.999;5.0
1732;GO;Fazenda Nova;-16.183;-50.78;425.0;99.999;5.0
1733;PR;Fazenda Rio Grande;-25.658;-49.31;924.0;99.999;5.0
1734;RS;Fazenda Vilanova;-29.6;-51.75;0.0;99.999;5.0
1735;AC;Feijó;-8.125;-70.35;0.0;99.999;5.0
1736;BA;Feira da Mata;-14.213;-44.28;490.0;99.999;5.0
1737;BA;Feira de Santana;-12.267;-38.97;224.0;99.999;5.0
1738;AL;Feira Grande;-9.9;-36.68;0.0;99.999;5.0
1739;PE;Feira Nova;-7.951;-35.39;367.0;99.998;11.0
1740;SE;Feira Nova;-10.264;-37.31;0.0;99.999;5.0
1741;MA;Feira Nova do Maranhão;-6.96;-46.69;0.0;99.999;5.0
1742;MG;Felício dos Santos;-18.077;-43.25;808.0;99.999;5.0
1743;RN;Felipe Guerra;-5.603;-37.69;0.0;99.999;5.0
1744;MG;Felisburgo;-16.639;-40.76;842.0;99.999;5.0
1745;MG;Felixlândia;-18.756;-44.76;623.0;99.999;5.0
1746;RS;Feliz;-29.451;-51.31;0.0;99.999;5.0
1747;AL;Feliz Deserto;-10.292;-36.31;353.0;99.998;11.0
1748;MT;Feliz Natal;-12.386;-54.92;0.0;99.999;5.0
1749;PR;Fênix;-23.916;-51.98;339.0;99.999;5.0
1750;PR;Fernandes Pinheiro;-25.413;-50.5;861.0;99.999;5.0
1751;MG;Fernandes Tourinho;-19.154;-42.08;226.0;99.999;5.0
1752;PE;Fernando de Noronha (Distrito Estadual);-3.755;-32.41;0.0;99.996;21.0
1753;MA;Fernando Falcão;-6.152;-44.76;295.0;99.999;5.0
1754;RN;Fernando Pedroza;-5.697;-36.5;0.0;99.999;5.0
1755;SP;Fernando Prestes;-21.264;-48.69;606.0;99.999;5.0
1756;SP;Fernandópolis;-20.284;-50.25;464.0;99.999;5.0
1757;SP;Fernão;-22.359;-49.5;563.0;99.999;5.0
1758;SP;Ferraz de Vasconcelos;-23.5;-46.37;809.0;99.999;5.0
1759;AP;Ferreira Gomes;0.756;-51.18;119.0;99.999;5.0
1760;PE;Ferreiros;-7.448;-35.24;0.0;99.998;11.0
1761;MG;Ferros;-19.232;-43.02;424.0;99.999;5.0
1762;MG;Fervedouro;-20.753;-42.28;825.0;99.999;5.0
1763;PR;Figueira;-23.755;-50.4;625.0;99.999;5.0
1764;TO;Figueirópolis;-12.131;-49.17;0.0;99.999;5.0
1765;MT;Figueirópolis d'Oeste;-15.445;-58.74;280.0;99.999;5.0
1766;BA;Filadélfia;-10.754;-40.13;420.0;99.999;5.0
1767;TO;Filadélfia;-7.336;-47.49;242.0;99.999;5.0
1768;BA;Firmino Alves;-14.985;-39.92;351.0;99.999;5.0
1769;GO;Firminópolis;-16.6;-50.31;637.0;99.999;5.0
1770;AL;Flexeiras;-9.198;-35.78;0.0;99.998;11.0
1771;PR;Flor da Serra do Sul;-26.26;-53.3;888.0;99.999;5.0
1772;SC;Flor do Sertão;-26.758;-53.35;0.0;99.999;5.0
1773;SP;Flora Rica;-21.676;-51.38;346.0;99.999;5.0
1774;PR;Floraí;-23.317;-52.3;401.0;99.999;5.0
1775;RN;Florânia;-6.127;-36.75;0.0;99.999;5.0
1776;SP;Floreal;-20.677;-50.15;480.0;99.999;5.0
1777;PE;Flores;-7.756;-37.97;0.0;99.999;5.0
1778;RS;Flores da Cunha;-29.029;-51.18;472.0;99.999;5.0
1779;GO;Flores de Goiás;-14.449;-47.05;265.0;99.999;5.0
1780;PI;Flores do Piauí;-7.759;-42.93;0.0;99.999;5.0
1781;PE;Floresta;-8.601;-38.6;211.0;99.999;5.0
1782;PR;Floresta;-23.6;-52.08;208.0;99.999;5.0
1783;BA;Floresta Azul;-14.756;-39.66;217.0;99.999;5.0
1784;PA;Floresta do Araguaia;-7.6;-49.71;789.0;99.999;5.0
1785;PI;Floresta do Piauí;-7.469;-41.79;0.0;99.999;5.0
1786;MG;Florestal;-19.756;-44.43;354.0;99.999;5.0
1787;PR;Florestópolis;-22.756;-51.39;512.0;99.999;5.0
1788;PI;Floriano;-6.757;-43.02;0.0;99.999;5.0
1789;RS;Floriano Peixoto;-27.756;-52.08;157.0;99.999;5.0
1790;SC;Florianópolis;-27.6;-48.5;0.0;99.998;11.0
1791;PR;Flórida;-23.087;-51.95;384.0;99.999;5.0
1792;SP;Flórida Paulista;-21.615;-51.17;444.0;99.999;5.0
1793;SP;Florínia;-22.903;-50.74;413.0;99.999;5.0
1794;AM;Fonte Boa;-2.5;-66.09;0.0;99.999;5.0
1795;RS;Fontoura Xavier;-28.983;-52.35;0.0;99.999;5.0
1796;MG;Formiga;-20.464;-45.43;850.0;99.999;5.0
1797;RS;Formigueiro;-30.0;-53.5;0.0;99.999;5.0
1798;GO;Formosa;-15.5;-47.33;326.0;99.999;5.0
1799;MA;Formosa da Serra Negra;-6.435;-46.19;405.0;99.999;5.0
1800;PR;Formosa do Oeste;-24.293;-53.31;756.0;99.999;5.0
1801;BA;Formosa do Rio Preto;-11.048;-45.19;0.0;99.999;5.0
1802;SC;Formosa do Sul;-26.647;-52.79;601.0;99.999;5.0
1803;GO;Formoso;-13.654;-48.76;200.0;99.999;5.0
1804;MG;Formoso;-14.947;-46.23;433.0;99.999;5.0
1805;TO;Formoso do Araguaia;-11.76;-49.5;748.0;99.999;5.0
1806;CE;Forquilha;-3.76;-40.26;115.0;99.999;5.0
1807;SC;Forquilhinha;-28.755;-49.47;0.0;99.999;5.0
1808;CE;Fortaleza;-3.752;-38.5;1199.0;99.998;11.0
1809;MG;Fortaleza de Minas;-20.755;-46.72;255.0;99.999;5.0
1810;TO;Fortaleza do Tabocão;-9.057;-48.5;478.0;99.999;5.0
1811;MA;Fortaleza dos Nogueiras;-6.964;-46.18;0.0;99.999;5.0
1812;RS;Fortaleza dos Valos;-28.76;-53.22;22.0;99.999;5.0
1813;CE;Fortim;-4.452;-37.8;0.0;99.998;11.0
1814;MA;Fortuna;-5.753;-44.16;712.0;99.999;5.0
1815;MG;Fortuna de Minas;-19.6;-44.45;137.0;99.999;5.0
1816;PR;Foz do Iguaçu;-25.5;-54.6;0.0;99.999;5.0
1817;PR;Foz do Jordão;-25.642;-52.1;816.0;99.999;5.0
1818;SC;Fraiburgo;-27.026;-50.92;0.0;99.999;5.0
1819;SP;Franca;-20.5;-47.4;991.0;99.999;5.0
1820;PI;Francinópolis;-6.396;-42.26;264.0;99.999;5.0
1821;PR;Francisco Alves;-24.066;-53.75;301.0;99.999;5.0
1822;PI;Francisco Ayres;-6.623;-42.69;163.0;99.999;5.0
1823;MG;Francisco Badaró;-16.993;-42.35;410.0;99.999;5.0
1824;PR;Francisco Beltrão;-26.081;-53.06;677.0;99.999;5.0
1825;RN;Francisco Dantas;-6.078;-38.12;0.0;99.999;5.0
1826;MG;Francisco Dumont;-17.315;-44.23;1043.0;99.999;5.0
1827;PI;Francisco Macedo;-7.331;-40.79;400.0;99.999;5.0
1828;SP;Francisco Morato;-23.282;-46.75;793.0;99.999;5.0
1829;MG;Francisco Sá;-16.476;-43.49;672.0;99.999;5.0
1830;PI;Francisco Santos;-6.993;-41.14;327.0;99.999;5.0
1831;MG;Franciscópolis;-17.96;-42.01;323.0;99.999;5.0
1832;SP;Franco da Rocha;-23.322;-46.73;791.0;99.999;5.0
1833;CE;Frecheirinha;-3.756;-40.75;138.0;99.999;5.0
1834;RS;Frederico Westphalen;-27.359;-53.39;0.0;99.999;5.0
1835;MG;Frei Gaspar;-18.066;-41.43;433.0;99.999;5.0
1836;MG;Frei Inocêncio;-18.6;-41.91;203.0;99.999;5.0
1837;MG;Frei Lagonegro;-18.126;-42.77;758.0;99.999;5.0
1838;PB;Frei Martinho;-6.403;-36.46;0.0;99.999;5.0
1839;PE;Frei Miguelinho;-7.94;-35.91;0.0;99.999;5.0
1840;SE;Frei Paulo;-10.5;-37.5;0.0;99.999;5.0
1841;SC;Frei Rogério;-27.175;-50.75;0.0;99.999;5.0
1842;MG;Fronteira;-20.268;-49.2;381.0;99.999;5.0
1843;MG;Fronteira dos Vales;-16.756;-40.92;478.0;99.999;5.0
1844;PI;Fronteiras;-7.088;-40.62;428.0;99.999;5.0
1845;MG;Fruta de Leite;-16.131;-42.5;872.0;99.999;5.0
1846;MG;Frutal;-20.025;-48.94;489.0;99.999;5.0
1847;RN;Frutuoso Gomes;-6.158;-37.75;0.0;99.999;5.0
1848;ES;Fundão;-19.933;-40.41;122.0;99.998;11.0
1849;MG;Funilândia;-19.368;-44.06;711.0;99.999;5.0
1850;SP;Gabriel Monteiro;-21.5;-50.6;402.0;99.999;5.0
1851;PB;Gado Bravo;-7.6;-35.79;0.0;99.999;5.0
1852;SP;Gália;-22.291;-49.6;671.0;99.999;5.0
1853;MG;Galiléia;-18.999;-41.5;407.0;99.999;5.0
1854;RN;Galinhos;-5.091;-36.28;0.0;99.999;5.0
1855;SC;Galvão;-26.455;-52.69;728.0;99.999;5.0
1856;PE;Gameleira;-8.6;-35.39;0.0;99.998;11.0
1857;MG;Gameleiras;-15.082;-43.12;497.0;99.999;5.0
1858;BA;Gandu;-13.754;-39.49;287.0;99.998;11.0
1859;PE;Garanhuns;-8.756;-36.49;0.0;99.999;5.0
1860;SE;Gararu;-9.968;-37.08;0.0;99.999;5.0
1861;SP;Garça;-22.211;-49.66;523.0;99.999;5.0
1862;RS;Garibaldi;-29.256;-51.5;0.0;99.999;5.0
1863;SC;Garopaba;-28.023;-48.61;0.0;99.998;11.0
1864;PA;Garrafão do Norte;-1.934;-47.05;112.0;99.998;11.0
1865;RS;Garruchos;-28.184;-55.64;0.0;99.999;5.0
1866;SC;Garuva;-26.027;-48.76;120.0;99.998;11.0
1867;SC;Gaspar;-26.931;-48.96;0.0;99.999;5.0
1868;SP;Gastão Vidigal;-20.76;-50.19;447.0;99.999;5.0
1869;MT;Gaúcha do Norte;-13.242;-53.08;347.0;99.999;5.0
1870;RS;Gaurama;-27.6;-52.09;0.0;99.999;5.0
1871;BA;Gavião;-11.471;-39.78;581.0;99.999;5.0
1872;SP;Gavião Peixoto;-21.755;-48.49;316.0;99.999;5.0
1873;PI;Geminiano;-7.158;-41.36;280.0;99.999;5.0
1874;RS;General Câmara;-29.905;-51.76;0.0;99.999;5.0
1875;MT;General Carneiro;-15.751;-52.76;529.0;99.999;5.0
1876;PR;General Carneiro;-26.428;-51.32;1173.0;99.999;5.0
1877;SE;General Maynard;-10.689;-36.98;0.0;99.998;11.0
1878;SP;General Salgado;-20.648;-50.36;413.0;99.999;5.0
1879;CE;General Sampaio;-4.053;-39.45;107.0;99.999;5.0
1880;RS;Gentil;-28.43;-52.04;0.0;99.999;5.0
1881;BA;Gentio do Ouro;-11.429;-42.5;900.0;99.999;5.0
1882;SP;Getulina;-21.76;-49.93;501.0;99.999;5.0
1883;RS;Getúlio Vargas;-27.756;-52.23;0.0;99.999;5.0
1884;PI;Gilbués;-9.755;-45.34;442.0;99.999;5.0
1885;AL;Girau do Ponciano;-9.756;-36.75;0.0;99.999;5.0
1886;RS;Giruá;-28.028;-54.35;0.0;99.999;5.0
1887;MG;Glaucilândia;-16.755;-43.7;683.0;99.999;5.0
1888;SP;Glicério;-21.376;-50.26;397.0;99.999;5.0
1889;BA;Glória;-9.338;-38.25;395.0;99.999;5.0
1890;MS;Glória de Dourados;-22.418;-54.23;0.0;99.999;5.0
1891;PE;Glória do Goitá;-8.002;-35.29;0.0;99.998;11.0
1892;MT;Glória d'Oeste;-15.757;-58.22;0.0;99.999;5.0
1893;RS;Glorinha;-29.756;-50.78;0.0;99.999;5.0
1894;MA;Godofredo Viana;-1.403;-45.78;12.0;99.998;11.0
1895;PR;Godoy Moreira;-24.177;-51.92;400.0;99.999;5.0
1896;MG;Goiabeira;-18.982;-41.22;189.0;99.999;5.0
1897;MG;Goianá;-21.5;-43.25;466.0;99.999;5.0
1898;PE;Goiana;-7.6;-35.0;0.0;99.998;11.0
1899;GO;Goianápolis;-16.5;-49.02;879.0;99.999;5.0
1900;GO;Goiandira;-18.132;-48.09;686.0;99.999;5.0
1901;GO;Goianésia;-15.318;-49.12;117.0;99.999;5.0
1902;PA;Goianésia do Pará;-3.755;-49.1;949.0;99.999;5.0
1903;GO;Goiânia;-16.679;-49.25;739.0;99.999;5.0
1904;RN;Goianinha;-6.265;-35.21;0.0;99.998;11.0
1905;GO;Goianira;-16.496;-49.43;775.0;99.999;5.0
1906;TO;Goianorte;-8.758;-48.93;250.0;99.999;5.0
1907;GO;Goiás;-15.934;-50.14;468.0;99.999;5.0
1908;TO;Goiatins;-7.751;-47.31;259.0;99.999;5.0
1909;GO;Goiatuba;-18.013;-49.35;702.0;99.999;5.0
1910;PR;Goioerê;-24.185;-53.03;435.0;99.999;5.0
1911;PR;Goioxim;-25.195;-51.99;1099.0;99.999;5.0
1912;MG;Gonçalves;-22.659;-45.76;163.0;99.999;5.0
1913;MA;Gonçalves Dias;-5.151;-44.3;1233.0;99.999;5.0
1914;BA;Gongogi;-14.322;-39.46;217.0;99.998;11.0
1915;MG;Gonzaga;-18.755;-42.48;642.0;99.999;5.0
1916;MG;Gouvêa;-18.454;-43.74;0.0;99.999;5.0
1917;GO;Gouvelândia;-18.643;-50.07;459.0;99.999;5.0
1918;MA;Governador Archer;-5.022;-44.27;96.0;99.999;5.0
1919;SC;Governador Celso Ramos;-27.315;-48.6;0.0;99.999;5.0
1920;RN;Governador Dix-Sept Rosado;-5.459;-37.5;0.0;99.999;5.0
1921;MA;Governador Edison Lobão;-5.755;-47.36;199.0;99.999;5.0
1922;MA;Governador Eugênio Barros;-5.323;-44.25;133.0;99.999;5.0
1923;RO;Governador Jorge Teixeira;-10.5;-62.64;0.0;99.999;5.0
1924;MA;Governador Luiz Rocha;-5.469;-44.07;186.0;99.999;5.0
1925;BA;Governador Mangabeira;-12.602;-39.04;213.0;99.998;11.0
1926;MA;Governador Newton Bello;-3.426;-45.68;45.0;99.999;5.0
1927;MA;Governador Nunes Freire;-2.126;-45.76;75.0;99.999;5.0
1928;MG;Governador Valadares;-18.756;-41.95;280.0;99.999;5.0
1929;CE;Graça;-4.046;-40.75;208.0;99.999;5.0
1930;MA;Graça Aranha;-5.41;-44.33;187.0;99.999;5.0
1931;SE;Gracho Cardoso;-10.227;-37.2;0.0;99.999;5.0
1932;MA;Grajaú;-5.755;-46.14;249.0;99.999;5.0
1933;RS;Gramado;-29.379;-50.76;0.0;99.999;5.0
1934;RS;Gramado dos Loureiros;-27.444;-52.92;0.0;99.999;5.0
1935;RS;Gramado Xavier;-29.268;-52.6;0.0;99.999;5.0
1936;PR;Grandes Rios;-24.146;-51.5;559.0;99.999;5.0
1937;PE;Granito;-7.752;-39.61;501.0;99.999;5.0
1938;CE;Granja;-3.12;-40.75;61.0;99.999;5.0
1939;CE;Granjeiro;-6.756;-39.22;361.0;99.999;5.0
1940;MG;Grão Mogol;-16.6;-42.76;861.0;99.999;5.0
1941;SC;Grão Pará;-28.185;-49.21;0.0;99.999;5.0
